full_site_address,Latitude,Longitude,cars_washed,original_address,competitors_count,competitor_1_distance_miles,competitor_1_google_rating,competitor_1_google_user_rating_count,competitor_2_distance_miles,competitor_2_google_rating,competitor_2_google_user_rating_count,competitor_3_distance_miles,competitor_3_google_rating,competitor_3_google_user_rating_count,competitor_4_distance_miles,competitor_4_google_rating,competitor_4_google_user_rating_count,competitor_5_distance_miles,competitor_5_google_rating,competitor_5_google_user_rating_count,competitor_6_distance_miles,competitor_6_google_rating,competitor_6_google_user_rating_count
"*** StoneWash *** Car Care Center , 818 Paris Rd , Mayfield , KY , 42066",36.7325312,-88.6330322,36381,"*** StoneWash *** Car Care Center , 818 Paris Rd , Mayfield , KY , 42066",1.0,0.0295453543338253,4.1,51.0,,,,,,,,,,,,,,,
"A-KEY CAR WASH , 2210 N Prince St , Clovis , NM , 88101",34.4211501,-103.1969689,95400,"A-KEY CAR WASH , 2210 N Prince St , Clovis , NM , 88101",4.0,0.513618496608942,2.0,1.0,0.601399059552287,4.0,68.0,0.618880728991891,4.3,1138.0,0.795479492742875,,,,,,,,
"ALL STAR CAR WASH , 5835 N Market St , Shreveport , LA , 71107",32.6003451,-93.841208,10751,"ALL STAR CAR WASH , 5835 N Market St , Shreveport , LA , 71107",0.0,,,,,,,,,,,,,,,,,,
"Abercorn , 10509 Abercorn St , Savannah , GA , 31419",31.9858522,-81.1330952,12326,"Abercorn , 10509 Abercorn St , Savannah , GA , 31419",3.0,0.451115723190687,4.7,185.0,0.513823552710007,4.3,871.0,0.87548435036642,4.9,779.0,,,,,,,,,
"Alabaster Wash and Wax , 916 1st St S , Alabaster , AL , 35007",33.2331449,-86.8116296,32263,"Alabaster Wash and Wax , 916 1st St S , Alabaster , AL , 35007",0.0,,,,,,,,,,,,,,,,,,
"Alameda , 395 Alameda Blvd NW , Albuquerque , NM , 87114",35.1891491,-106.6161158,116253,"Alameda , 395 Alameda Blvd NW , Albuquerque , NM , 87114",1.0,0.314228231176358,4.3,183.0,,,,,,,,,,,,,,,
"Alamosa , 51 Craft Dr , Alamosa , CO , 81101",37.4765837,-105.8945442,107804,"Alamosa , 51 Craft Dr , Alamosa , CO , 81101",0.0,,,,,,,,,,,,,,,,,,
"All American Big Spring , 513 W Marcy Dr , Big Spring , TX , 79720",32.2284801,-101.4727633,96752,"All American Big Spring , 513 W Marcy Dr , Big Spring , TX , 79720",2.0,0.455508275332474,3.6,138.0,0.966128502246141,4.6,43.0,,,,,,,,,,,,
"All American Boerne , 1376 S Main St , Boerne , TX , 78006",29.7768476,-98.726846,37398,"All American Boerne , 1376 S Main St , Boerne , TX , 78006",1.0,0.547392599321257,4.1,488.0,,,,,,,,,,,,,,,
"All American Car Wash , 917 N 7th St , Vincennes , IN , 47591",38.6808632,-87.5201897,44686,"All American Car Wash , 917 N 7th St , Vincennes , IN , 47591",3.0,0.414828423752163,3.7,171.0,0.782279026729284,,,0.783639239874936,3.5,47.0,,,,,,,,,
"All Washed Up Canonsburg , 405 Old Pike St , Canonsburg , PA , 15317",40.2614149,-80.1747502,103508,"All Washed Up Canonsburg , 405 Old Pike St , Canonsburg , PA , 15317",1.0,0.641096515867333,3.9,163.0,,,,,,,,,,,,,,,
"All Washed Up Dubois , 306 Liberty Blvd , DuBois , PA , 15801",41.1205763,-78.758636,74885,"All Washed Up Dubois , 306 Liberty Blvd , DuBois , PA , 15801",0.0,,,,,,,,,,,,,,,,,,
"All Washed Up Harmar , 2404 Freeport Rd , Pittsburgh , PA , 15238",40.5336038,-79.8458897,98231,"All Washed Up Harmar , 2404 Freeport Rd , Pittsburgh , PA , 15238",1.0,0.567348617091741,4.9,687.0,,,,,,,,,,,,,,,
"All Washed Up Johnstown , 1119 Scalp Ave , Johnstown , PA , 15904",40.281186,-78.8627293,18765,"All Washed Up Johnstown , 1119 Scalp Ave , Johnstown , PA , 15904",1.0,0.879993417584249,4.3,198.0,,,,,,,,,,,,,,,
"All Washed Up Munhall , 630 William Marks Dr , Homestead , PA , 15120",40.4096318,-79.8993024,89716,"All Washed Up Munhall , 630 William Marks Dr , Homestead , PA , 15120",1.0,0.830395954034106,,,,,,,,,,,,,,,,,
"All Washed Up Uniontown , 15 New Salem Rd , Uniontown , PA , 15401",39.9105773,-79.7474519,7173,"All Washed Up Uniontown , 15 New Salem Rd , Uniontown , PA , 15401",1.0,0.5491361176339,2.5,31.0,,,,,,,,,,,,,,,
"Amaranth , 200 W Amaranth Ln , Lincoln , NE , 68523",40.7445062,-96.7255223,9886,"Amaranth , 200 W Amaranth Ln , Lincoln , NE , 68523",0.0,,,,,,,,,,,,,,,,,,
"American Pride Smithfield , 1203 N Brightleaf Blvd , Smithfield , NC , 27577",35.5195152,-78.3146416,169044,"American Pride Smithfield , 1203 N Brightleaf Blvd , Smithfield , NC , 27577",0.0,,,,,,,,,,,,,,,,,,
"Aqua Breeze Car Wash , 150 E Felton Rd , Cartersville , GA , 30120",34.1971313,-84.7921299,93893,"Aqua Breeze Car Wash , 150 E Felton Rd , Cartersville , GA , 30120",1.0,0.796107931038085,3.5,95.0,,,,,,,,,,,,,,,
"Auto Suds Express West , 25th North 25th St. , Lebanon , PA , 17042",40.3402231,-76.4568065,93511,"Auto Suds Express West , 25th North 25th St. , Lebanon , PA , 17042",1.0,0.921783976740067,3.7,108.0,,,,,,,,,,,,,,,
"AutoBrite Express , 211 N Cooper Dr , Henderson , NC , 27536",36.3328772,-78.4411117,51490,"AutoBrite Express , 211 N Cooper Dr , Henderson , NC , 27536",1.0,0.423889583370982,3.0,206.0,,,,,,,,,,,,,,,
"Autosoak , 18711 S Gardner Rd , Gardner , KS , 66030",38.7887778,-94.9270292,60382,"Autosoak , 18711 S Gardner Rd , Gardner , KS , 66030",2.0,0.336722375991407,1.8,44.0,0.340692512231834,1.9,20.0,,,,,,,,,,,,
"Autosport Car Wash , 6628 Whittlesey Blvd , Columbus , GA , 31909",32.549643,-84.9331716,69626,"Autosport Car Wash , 6628 Whittlesey Blvd , Columbus , GA , 31909",0.0,,,,,,,,,,,,,,,,,,
"Avatar , 1623 S Poinciana Blvd , Kissimmee , FL , 34758",28.257958,-81.485298,97792,"Avatar , 1623 S Poinciana Blvd , Kissimmee , FL , 34758",0.0,,,,,,,,,,,,,,,,,,
"Aztec , 1520 Aztec Blvd , Aztec , NM , 87410",36.8263159,-108.0119144,24332,"Aztec , 1520 Aztec Blvd , Aztec , NM , 87410",1.0,0.0993043329164726,3.2,89.0,,,,,,,,,,,,,,,
"B3 Car Wash , 611 Tenaha St , Center , TX , 75935",31.8038311,-94.1867481,8795,"B3 Car Wash , 611 Tenaha St , Center , TX , 75935",2.0,0.346742150613671,4.4,47.0,0.460292438133198,4.3,3.0,,,,,,,,,,,,
"BDP's Kwapa Car Wash , 3200 W Casino Dr , Somerton , AZ , 85350",32.6101385,-114.6549997,2139,,,,,,,,,,,,,,,,,,,,
"BIG STEVES CAR WASH , 561 North Main St , Leominster , MA , 1453",42.55114,-71.7638088,194724,"BIG STEVES CAR WASH , 561 North Main St , Leominster , MA , 1453",0.0,,,,,,,,,,,,,,,,,,
"Bella Stone Car Wash , 2413 Palermo Parkway , Temple , TX , 76502",31.0378299,-97.3912928,16789,"Bella Stone Car Wash , 2413 Palermo Parkway , Temple , TX , 76502",0.0,,,,,,,,,,,,,,,,,,
"Berwick , 5702 Ogeechee rd , Savannah , GA , 31322",32.0285169,-81.2226747,11990,"Berwick , 5702 Ogeechee rd , Savannah , GA , 31322",0.0,,,,,,,,,,,,,,,,,,
"Big Dan's Crystal River , 517 NE 5th St , Crystal River , FL , 34429",28.8986604,-82.5859672,203528,,,,,,,,,,,,,,,,,,,,
"Big Dan's Fairburn , 7925 Senoia Rd , Fairburn , GA , 30213",33.5396761,-84.5776059,202602,,,,,,,,,,,,,,,,,,,,
"Big Dan's Hiram , 2850 Jimmy Lee Smith Pkwy , Hiram , GA , 30141",33.9019157,-84.77816,181181,,,,,,,,,,,,,,,,,,,,
"Big Dan's Lady Lake , 135 US-441 , Lady Lake , FL , 32159",28.9187793,-81.9229062,126438,,,,,,,,,,,,,,,,,,,,
"Big Dan's Toccoa , 2421 GA 17Alt , Toccoa , GA , 30577",34.5655692,-83.29788,22500,,,,,,,,,,,,,,,,,,,,
"Big Dan's Woodstock , 289 Ridgewalk Pkwy , Woodstock , GA , 30188",34.1195579,-84.5192049,131004,,,,,,,,,,,,,,,,,,,,
"Big Dan's Woodstock 2 , 300 Gold Creek Trail , Woodstock , GA , 30188",34.086258,-84.466738,120921,,,,,,,,,,,,,,,,,,,,
"Big Kahuna CW , 61 Commodore St , Hazard , KY , 41701",37.299364,-83.2012171,52106,"Big Kahuna CW , 61 Commodore St , Hazard , KY , 41701",0.0,,,,,,,,,,,,,,,,,,
"Big Peach Forsyth , 126 N Lee St , Forsyth , GA , 31029",33.0404585,-83.9400952,151078,"Big Peach Forsyth , 126 N Lee St , Forsyth , GA , 31029",0.0,,,,,,,,,,,,,,,,,,
"Big Peach Jackson , 583 E 3rd St , Jackson , GA , 30233",33.2947224,-83.9602247,97714,"Big Peach Jackson , 583 E 3rd St , Jackson , GA , 30233",0.0,,,,,,,,,,,,,,,,,,
"Big Peach Ola , 3479 Hwy 81 , McDonough , GA , 30252",33.4366472,-84.0385491,36510,"Big Peach Ola , 3479 Hwy 81 , McDonough , GA , 30252",0.0,,,,,,,,,,,,,,,,,,
"Big River Selma , 2409 N Broad St , Selma , AL , 36701",32.4325392,-87.0249312,106218,"Big River Selma , 2409 N Broad St , Selma , AL , 36701",1.0,0.138865399952088,4.4,11.0,,,,,,,,,,,,,,,
"Big River Troy , 1221 US-231 , Troy , AL , 36081",31.7801113,-85.949913,91676,"Big River Troy , 1221 US-231 , Troy , AL , 36081",2.0,0.456017621549831,4.4,797.0,0.460751153262181,,,,,,,,,,,,,,
"Blanding , 580 Blanding Blvd , Orange Park , FL , 32073",30.1522001,-81.7514299,18130,"Blanding , 580 Blanding Blvd , Orange Park , FL , 32073",1.0,0.908983784537946,4.8,56.0,,,,,,,,,,,,,,,
"Blu Wave Express Wash , 306 E Franklin St , Sylvester , GA , 31791",31.5301708,-83.8334232,57179,"Blu Wave Express Wash , 306 E Franklin St , Sylvester , GA , 31791",0.0,,,,,,,,,,,,,,,,,,
"Blu's Flex Serve Car Wash , 420 S Main St , Lumberton , TX , 77657",30.2490469,-94.1977178,76418,,,,,,,,,,,,,,,,,,,,
"Blue Penguin Griffin , 1475 N Expy , Griffin , GA , 30223",33.2738091,-84.2918572,113870,"Blue Penguin Griffin , 1475 N Expy , Griffin , GA , 30223",1.0,0.126987448969663,4.0,346.0,,,,,,,,,,,,,,,
"Blue Rhino Car Wash , 3614 Cobb Pkwy NW , Acworth , GA , 30101",34.0440574,-84.6949093,16967,"Blue Rhino Car Wash , 3614 Cobb Pkwy NW , Acworth , GA , 30101",2.0,0.0096750924577708,4.2,33.0,0.306335080163633,4.2,441.0,,,,,,,,,,,,
"BlueWave Alvin , 2002 E HWY 6 , Alvin , TX , 77511",29.4218032,-95.2267778,3307,"BlueWave Alvin , 2002 E HWY 6 , Alvin , TX , 77511",1.0,0.321313542777519,4.9,1999.0,,,,,,,,,,,,,,,
"BlueWave Bibb , 645 South Bibb Ave , Eagle Pass , TX , 78852",28.6989033,-100.484934,93312,"BlueWave Bibb , 645 South Bibb Ave , Eagle Pass , TX , 78852",2.0,0.704082379441189,3.0,2.0,0.759332650282493,4.4,7.0,,,,,,,,,,,,
"BlueWave Cibolo , 174 W Borgfeld Rd , Cibolo , TX , 78108",29.5725582,-98.2389545,67530,"BlueWave Cibolo , 174 W Borgfeld Rd , Cibolo , TX , 78108",2.0,0.418427645025071,2.3,42.0,0.420416778123862,4.6,58.0,,,,,,,,,,,,
"BlueWave Conroe , 10345 Highway 242 , Conroe , TX , 77385",30.2091694,-95.4239756,18310,"BlueWave Conroe , 10345 Highway 242 , Conroe , TX , 77385",1.0,0.146413845398382,4.0,16.0,,,,,,,,,,,,,,,
"BlueWave Del Rio , 2201 Veterans Blvd , Del Rio , TX , 78840",29.3891844,-100.9047145,88522,"BlueWave Del Rio , 2201 Veterans Blvd , Del Rio , TX , 78840",0.0,,,,,,,,,,,,,,,,,,
"BlueWave Humble , 9719 N Sam Houston Pkwy E , Humble , TX , 77396",29.9355463,-95.2435561,57968,"BlueWave Humble , 9719 N Sam Houston Pkwy E , Humble , TX , 77396",2.0,0.414920397336329,4.7,3.0,0.976172565734829,2.3,15.0,,,,,,,,,,,,
"BlueWave League City , 1740 W FM646 , League City , TX , 77573",29.4669391,-95.0874048,15973,"BlueWave League City , 1740 W FM646 , League City , TX , 77573",1.0,0.880060501049452,3.6,539.0,,,,,,,,,,,,,,,
"BlueWave Livingston , 1829 US Highway 190 W , Livingston , TX , 77351",30.7176553,-94.9618149,37668,"BlueWave Livingston , 1829 US Highway 190 W , Livingston , TX , 77351",1.0,0.415254745848175,4.6,1387.0,,,,,,,,,,,,,,,
"BlueWave Lumberton , 710 S Main St , Lumberton , TX , 77657",30.2423772,-94.196705,44680,"BlueWave Lumberton , 710 S Main St , Lumberton , TX , 77657",2.0,0.101454641445119,5.0,1.0,0.471012075124632,4.6,140.0,,,,,,,,,,,,
"BlueWave Montgomery , 20210 Eva St Montgomery , Montgomery , TX , 77356",30.3886464,-95.6805365,19782,"BlueWave Montgomery , 20210 Eva St Montgomery , Montgomery , TX , 77356",1.0,0.529428719050152,4.7,800.0,,,,,,,,,,,,,,,
"BlueWave Penitas , 1807 Expressway 83 , Penitas , TX , 78576",26.2440893,-98.4418103,80189,"BlueWave Penitas , 1807 Expressway 83 , Penitas , TX , 78576",0.0,,,,,,,,,,,,,,,,,,
"BlueWave Rio Grande , 4343 US-83 , Rio Grande City , TX , 78582",26.3442811,-98.7440723,37616,"BlueWave Rio Grande , 4343 US-83 , Rio Grande City , TX , 78582",0.0,,,,,,,,,,,,,,,,,,
"Bryant - N Reynolds Rd , 2116 N Reynolds Rd , Bryant , AR , 72022",34.6140151,-92.4977299,36135,"Bryant - N Reynolds Rd , 2116 N Reynolds Rd , Bryant , AR , 72022",1.0,0.640831252558797,4.5,1099.0,,,,,,,,,,,,,,,
"Buff It #2 , 1699 Stick Ross Mountain Rd , Tahlequah , OK , 74464",35.8919067,-94.9858551,47405,"Buff It #2 , 1699 Stick Ross Mountain Rd , Tahlequah , OK , 74464",0.0,,,,,,,,,,,,,,,,,,
"Buff It Auto Wash , 1408 E Wade Watts Ave , McAlester , OK , 74501",34.9237442,-95.751091,77420,"Buff It Auto Wash , 1408 E Wade Watts Ave , McAlester , OK , 74501",1.0,0.561820804653419,4.8,470.0,,,,,,,,,,,,,,,
"Bulldog Car Wash , 2920 Atlanta Hwy , Athens , GA , 30606",33.9453994,-83.4395095,27575,"Bulldog Car Wash , 2920 Atlanta Hwy , Athens , GA , 30606",1.0,0.821264429347886,4.7,184.0,,,,,,,,,,,,,,,
"Burlington , 3155 E Agency St , Burlington , IA , 52601",40.8142028,-91.1381794,80011,"Burlington , 3155 E Agency St , Burlington , IA , 52601",3.0,0.186857618880937,3.8,80.0,0.215888808593853,4.5,4.0,0.590012246583306,4.4,69.0,,,,,,,,,
"Buster's Car Wash , 2409 Route 9 , Malta , NY , 12020",42.9635835,-73.7908461,3483,,,,,,,,,,,,,,,,,,,,
"CHAGRIN AUTO SPA , 8327 E Washington St , Chagrin Falls , OH , 44023",41.4140899,-81.344812,38522,"CHAGRIN AUTO SPA , 8327 E Washington St , Chagrin Falls , OH , 44023",0.0,,,,,,,,,,,,,,,,,,
"Cabot - Willie Ray Dr , 210 Willie Ray Dr , Cabot , AR , 72023",34.9816958,-92.0354003,124856,"Cabot - Willie Ray Dr , 210 Willie Ray Dr , Cabot , AR , 72023",1.0,0.844451643603491,4.0,449.0,,,,,,,,,,,,,,,
"Cajun Clean , 2240 Denny Ave , Pascagoula , MS , 39567",30.3703765,-88.5403641,118424,"Cajun Clean , 2240 Denny Ave , Pascagoula , MS , 39567",0.0,,,,,,,,,,,,,,,,,,
"Cajun Clean Gautier , 2235 US-90 , Gautier , MS , 39553",30.3903613,-88.6456867,92165,"Cajun Clean Gautier , 2235 US-90 , Gautier , MS , 39553",2.0,0.0381304678463041,5.0,1.0,0.68153551976202,3.9,62.0,,,,,,,,,,,,
"Calhoun , 460 Hwy 53 , Calhoun , GA , 30701",34.4761289,-84.9279642,106706,"Calhoun , 460 Hwy 53 , Calhoun , GA , 30701",1.0,0.52830049791743,3.5,24.0,,,,,,,,,,,,,,,
"Caliber Inverness , 2001 Hwy 44 W , Inverness , FL , 34453",28.83717,-82.3558067,211181,"Caliber Inverness , 2001 Hwy 44 W , Inverness , FL , 34453",0.0,,,,,,,,,,,,,,,,,,
"Canon City , 3110 E Main St , Canon City , CO , 81212",38.4465114,-105.1920275,99507,"Canon City , 3110 E Main St , Canon City , CO , 81212",0.0,,,,,,,,,,,,,,,,,,
"Capitol Car Wash , 3125 Airport Rd , Pierre , SD , 57501",44.3818768,-100.3122439,56568,"Capitol Car Wash , 3125 Airport Rd , Pierre , SD , 57501",0.0,,,,,,,,,,,,,,,,,,
"Carisma Car Wash , 2407 W Dickinson Blvd , Fort Stockton , TX , 79735",30.8937579,-102.9062363,45555,"Carisma Car Wash , 2407 W Dickinson Blvd , Fort Stockton , TX , 79735",0.0,,,,,,,,,,,,,,,,,,
"Carmel Car Wash 3 , 2003 S Goliad St , Rockwall , TX , 75087",32.9118499,-96.4511337,119520,"Carmel Car Wash 3 , 2003 S Goliad St , Rockwall , TX , 75087",2.0,0.487525350775173,4.4,1803.0,0.613608334090245,4.1,912.0,,,,,,,,,,,,
"Cartersville , 1330 Joe Frank Harris Pkwy SE , Cartersville , GA , 30120",34.2071766,-84.8163398,95753,"Cartersville , 1330 Joe Frank Harris Pkwy SE , Cartersville , GA , 30120",2.0,0.025245177291124,,,0.926653030463817,3.5,95.0,,,,,,,,,,,,
"Cartersville , 9 Hillview Ave NE , Cartersville , GA , 30121",34.2065892,-84.8002252,55645,"Cartersville , 9 Hillview Ave NE , Cartersville , GA , 30121",3.0,0.800654633873926,4.9,1348.0,0.918781094396661,4.7,1220.0,0.936635167692202,,,,,,,,,,,
"Castaway Car Wash , 1686 S 8th St , Fernandina Beach , FL , 32034",30.6479175,-81.4592685,59361,"Castaway Car Wash , 1686 S 8th St , Fernandina Beach , FL , 32034",2.0,0.566681266656076,3.5,24.0,0.848264276412442,4.4,133.0,,,,,,,,,,,,
"Cedar Town , 1559 Rome Hwy , Cedartown , GA , 30125",34.045311,-85.2369717,75787,"Cedar Town , 1559 Rome Hwy , Cedartown , GA , 30125",0.0,,,,,,,,,,,,,,,,,,
"Champion - Old Hickory , 1432 Robinson Rd , Old Hickory , TN , 37138",36.2568948,-86.6562578,52791,"Champion - Old Hickory , 1432 Robinson Rd , Old Hickory , TN , 37138",0.0,,,,,,,,,,,,,,,,,,
"Champion CW - HENDER , 1159 W Main St , Hendersonville , TN , 37075",36.3085083,-86.6632137,58818,"Champion CW - HENDER , 1159 W Main St , Hendersonville , TN , 37075",3.0,0.0065247822898616,4.3,200.0,0.113197948293127,2.0,3.0,0.535112747237041,4.7,194.0,,,,,,,,,
"Champion CW - PLVIEW , 101 Ren Mar Dr , Pleasant View , TN , 37146",36.397869,-87.030783,52795,"Champion CW - PLVIEW , 101 Ren Mar Dr , Pleasant View , TN , 37146",1.0,0.0078653542841878,3.7,3.0,,,,,,,,,,,,,,,
"Champion Car Wash , 930 Old US Hwy 1 , Southern Pines , NC , 28387",35.1677913,-79.4033042,21433,"Champion Car Wash , 930 Old US Hwy 1 , Southern Pines , NC , 28387",2.0,0.707150486281873,3.9,199.0,0.759182893344836,,,,,,,,,,,,,,
"Champions CW , 20118 Stone Oak Parkway , San Antonio , TX , 78258",29.6260576,-98.4953595,89164,"Champions CW , 20118 Stone Oak Parkway , San Antonio , TX , 78258",0.0,,,,,,,,,,,,,,,,,,
"Champs Car Wash , 775 N Mustang Rd , Tuttle , OK , 73089",35.3019905,-97.7245565,32534,"Champs Car Wash , 775 N Mustang Rd , Tuttle , OK , 73089",0.0,,,,,,,,,,,,,,,,,,
"Clarksville , 1606 Haynes St , Clarksville , TN , 37043",36.515143,-87.315686,11100,"Clarksville , 1606 Haynes St , Clarksville , TN , 37043",1.0,0.102643769133084,4.6,292.0,,,,,,,,,,,,,,,
"Classic Auto Wash , 289 N Comrie Ave , Johnstown , NY , 12095",43.0191956,-74.3623202,115267,"Classic Auto Wash , 289 N Comrie Ave , Johnstown , NY , 12095",0.0,,,,,,,,,,,,,,,,,,
"Clean Wheels , 3919 Cheyenne Street , Cheyenne , WY , 82001",41.1469765,-104.7615591,76367,"Clean Wheels , 3919 Cheyenne Street , Cheyenne , WY , 82001",2.0,0.287148583058034,4.4,400.0,0.350200123307573,3.8,33.0,,,,,,,,,,,,
"ClearWater - Burleson , 279 NW John Jones Dr , Burleson , TX , 76028",32.523754,-97.3526833,145369,"ClearWater - Burleson , 279 NW John Jones Dr , Burleson , TX , 76028",2.0,0.191994909304013,4.5,176.0,0.200712763262137,2.8,12.0,,,,,,,,,,,,
"ClearWater - Cleburne , 809 W Henderson St , Cleburne , TX , 76033",32.3440449,-97.3974471,208767,"ClearWater - Cleburne , 809 W Henderson St , Cleburne , TX , 76033",1.0,0.843034870978934,3.8,33.0,,,,,,,,,,,,,,,
"ClearWater - Conroe 105 , 14667 Hwy 105 West , Montgomery , TX , 77356",30.3539021,-95.5851161,2198,"ClearWater - Conroe 105 , 14667 Hwy 105 West , Montgomery , TX , 77356",1.0,0.286230253366188,4.1,101.0,,,,,,,,,,,,,,,
"ClearWater - Houston 249 , 6421 West Rd , Houston , TX , 77086",29.9123294,-95.4837309,195556,"ClearWater - Houston 249 , 6421 West Rd , Houston , TX , 77086",4.0,0.141541011010539,4.9,1494.0,0.464805718184147,4.2,790.0,0.465557796992839,,,0.561685743688568,,,,,,,,
"ClearWater - Magnolia , 14206 Farm to Market Rd 1488 , Magnolia , TX , 77354",30.2243894,-95.68431,104855,"ClearWater - Magnolia , 14206 Farm to Market Rd 1488 , Magnolia , TX , 77354",2.0,0.263108860081001,3.0,2.0,0.649108252060517,4.1,11.0,,,,,,,,,,,,
"ClearWater - Willis East , 111 Holland St , Willis , TX , 77378",30.4229852,-95.4861172,64232,"ClearWater - Willis East , 111 Holland St , Willis , TX , 77378",2.0,0.269707393997934,2.0,4.0,0.59822774457683,4.9,288.0,,,,,,,,,,,,
"Clearview Car Wash East Tawas , 1748 US-23 , East Tawas , MI , 48730",44.2909221,-83.4528286,2154,"Clearview Car Wash East Tawas , 1748 US-23 , East Tawas , MI , 48730",0.0,,,,,,,,,,,,,,,,,,
"Clearview Car Wash Oscoda , 5232 N U.S. 23 , Oscoda , MI , 48750",44.432142,-83.3297029,57294,"Clearview Car Wash Oscoda , 5232 N U.S. 23 , Oscoda , MI , 48750",0.0,,,,,,,,,,,,,,,,,,
"Clearview Car Wash Ripley , 135 S Ripley St , Alpena , MI , 49707",45.0606433,-83.4526433,96040,"Clearview Car Wash Ripley , 135 S Ripley St , Alpena , MI , 49707",1.0,0.927790993158278,4.4,172.0,,,,,,,,,,,,,,,
"Clearview Car Wash State Street , 105 Mason St , Alpena , MI , 49707",45.0475512,-83.4484188,84286,"Clearview Car Wash State Street , 105 Mason St , Alpena , MI , 49707",1.0,0.92417562150659,4.5,238.0,,,,,,,,,,,,,,,
"Coastline Express , 4447 Main St , Shallotte , NC , 28470",33.984025,-78.3666889,127158,"Coastline Express , 4447 Main St , Shallotte , NC , 28470",0.0,,,,,,,,,,,,,,,,,,
"Conway - Old Morrilton Hwy , 1505 Old Morrilton Hwy , Conway , AR , 72032",35.1113002,-92.4448947,47401,"Conway - Old Morrilton Hwy , 1505 Old Morrilton Hwy , Conway , AR , 72032",0.0,,,,,,,,,,,,,,,,,,
"Coors , 5401 Sevilla Ave NW , Albuquerque , NM , 87120",35.1411474,-106.6991857,90649,"Coors , 5401 Sevilla Ave NW , Albuquerque , NM , 87120",0.0,,,,,,,,,,,,,,,,,,
"Corinth , 2210 S Harper Rd , Corinth , MS , 38834",34.9120866,-88.5034177,81590,"Corinth , 2210 S Harper Rd , Corinth , MS , 38834",3.0,0.205410283800214,4.7,650.0,0.206426403932961,,,0.206426403932961,3.9,99.0,,,,,,,,,
"Covington , 29 Robbins Rd , Covington , TN , 38019",35.5436772,-89.663502,120052,"Covington , 29 Robbins Rd , Covington , TN , 38019",0.0,,,,,,,,,,,,,,,,,,
"Crystal Clean Auto Spa , 75 Old HWY 96 , Bonaire , GA , 31005",32.5488135,-83.5955388,34211,"Crystal Clean Auto Spa , 75 Old HWY 96 , Bonaire , GA , 31005",0.0,,,,,,,,,,,,,,,,,,
"DAVID CHEVROLET , 10225 Niagara Falls Blvd , Niagara Falls , NY , 14304",43.0986208,-78.9422278,27438,"DAVID CHEVROLET , 10225 Niagara Falls Blvd , Niagara Falls , NY , 14304",0.0,,,,,,,,,,,,,,,,,,
"DON'S EXPRESS CARWASH , 200 Waldon Rd , Harlan , KY , 40831",36.8192661,-83.3184822,30725,,,,,,,,,,,,,,,,,,,,
"Dallas Kwik-Mart , 2384 Memorial Highway , Dallas , PA , 18612",41.3313887,-75.9536603,24352,"Dallas Kwik-Mart , 2384 Memorial Highway , Dallas , PA , 18612",1.0,0.899946649923936,2.6,67.0,,,,,,,,,,,,,,,
"Daybreak Market , 19701 Cochran Blvd , Port Charlotte , FL , 33948",27.0167144,-82.1334659,18894,"Daybreak Market , 19701 Cochran Blvd , Port Charlotte , FL , 33948",3.0,0.106141558371162,4.9,2036.0,0.576069784563233,4.4,439.0,0.670385133394643,4.3,3.0,,,,,,,,,
"Delta , 1201 Valley View Dr , Delta , CO , 81416",38.751272,-108.055851,33406,"Delta , 1201 Valley View Dr , Delta , CO , 81416",0.0,,,,,,,,,,,,,,,,,,
"Detricks Conway , 2280 Church St , Conway , SC , 29526",33.85278,-79.0754414,163251,"Detricks Conway , 2280 Church St , Conway , SC , 29526",0.0,,,,,,,,,,,,,,,,,,
"Detricks Glenforest , 1036 Glenforest Rd , Myrtle Beach , SC , 29579",33.7547775,-78.9635923,93464,"Detricks Glenforest , 1036 Glenforest Rd , Myrtle Beach , SC , 29579",2.0,0.35479612259495,1.0,5.0,0.560610306487508,2.4,33.0,,,,,,,,,,,,
"Diamond Express , 1801 Lander Ave , Turlock , CA , 95380",37.475985,-120.8494004,3600,"Diamond Express , 1801 Lander Ave , Turlock , CA , 95380",0.0,,,,,,,,,,,,,,,,,,
"Dickys Bluffton , 1930 N Main St , Bluffton , IN , 46714",40.7705245,-85.166528,44911,"Dickys Bluffton , 1930 N Main St , Bluffton , IN , 46714",0.0,,,,,,,,,,,,,,,,,,
"Dickys Decatur , 1022 S 13th St , Decatur , IN , 46733",40.818633,-84.939277,37176,"Dickys Decatur , 1022 S 13th St , Decatur , IN , 46733",1.0,0.155292708000417,4.1,8.0,,,,,,,,,,,,,,,
"Dickys Huntington , 2600 Walmart Dr , Huntington , IN , 46750",40.898213,-85.5135535,5826,"Dickys Huntington , 2600 Walmart Dr , Huntington , IN , 46750",3.0,0.0594571923213534,,,0.0723110221404706,,,0.657415843047194,4.3,129.0,,,,,,,,,
"Dog House Auto Spa , 731 W Rogers Blvd , Skiatook , OK , 74070",36.3682186,-96.0117013,28278,"Dog House Auto Spa , 731 W Rogers Blvd , Skiatook , OK , 74070",1.0,0.461709738373069,3.8,147.0,,,,,,,,,,,,,,,
"EXPRESS AUTO WASH , 7167 NY-54 , Bath , NY , 14810",42.3490756,-77.3089603,18393,"EXPRESS AUTO WASH , 7167 NY-54 , Bath , NY , 14810",0.0,,,,,,,,,,,,,,,,,,
"Eastlake , 13509 Eastlake Blvd , El Paso , TX , 79928",31.6986017,-106.2213483,38673,"Eastlake , 13509 Eastlake Blvd , El Paso , TX , 79928",1.0,0.988920923845084,3.9,240.0,,,,,,,,,,,,,,,
"Edge Express Garner , 4717 NC-42 , Garner , NC , 27529",35.6108709,-78.5531604,83788,"Edge Express Garner , 4717 NC-42 , Garner , NC , 27529",0.0,,,,,,,,,,,,,,,,,,
"Edge Express Shelby , 925 E Dixon Blvd , Shelby , NC , 28152",35.2744626,-81.5270426,106644,"Edge Express Shelby , 925 E Dixon Blvd , Shelby , NC , 28152",2.0,0.0690145130789311,4.4,155.0,0.750444421491686,3.9,393.0,,,,,,,,,,,,
"Edge Express Shelby 2 , 1696 E Dixon Blvd , Shelby , NC , 28152",35.2728672,-81.5051658,24733,"Edge Express Shelby 2 , 1696 E Dixon Blvd , Shelby , NC , 28152",2.0,0.0074659374901863,,,0.484632362900824,,,,,,,,,,,,,,
"Edgewood , 3 NM Hwy 344 , Edgewood , NM , 87015",35.1482669,-106.1914196,21737,"Edgewood , 3 NM Hwy 344 , Edgewood , NM , 87015",0.0,,,,,,,,,,,,,,,,,,
"Elks Edge , 547 CC Camp Rd , Elkin , NC , 28621",36.2787554,-80.8330241,100779,"Elks Edge , 547 CC Camp Rd , Elkin , NC , 28621",0.0,,,,,,,,,,,,,,,,,,
"Espanola , 1319 N Riverside Dr , Espanola , NM , 87532",36.0111124,-106.0636052,104122,"Espanola , 1319 N Riverside Dr , Espanola , NM , 87532",3.0,0.141469044410594,4.0,8.0,0.154147024966094,3.6,73.0,0.778137775133121,4.0,72.0,,,,,,,,,
"Express Wash Kissimmee , 1095 Amber Pointe Blvd , Kissimmee , FL , 34744",28.280829,-81.344289,53013,"Express Wash Kissimmee , 1095 Amber Pointe Blvd , Kissimmee , FL , 34744",1.0,0.137329424301713,4.9,761.0,,,,,,,,,,,,,,,
"Express Wash Lakeland , 5430 Florida Ave S , Lakeland , FL , 33813",27.9665149,-81.9645933,150579,"Express Wash Lakeland , 5430 Florida Ave S , Lakeland , FL , 33813",3.0,0.500261355295141,3.5,996.0,0.748824492278863,2.9,38.0,0.749061707113487,4.0,795.0,,,,,,,,,
"FASTLANE EXPRESS CAR WASH , 924 E 30th Ave , Hutchinson , KS , 67502",38.087,-97.9111,53569,"FASTLANE EXPRESS CAR WASH , 924 E 30th Ave , Hutchinson , KS , 67502",1.0,0.335535766036432,3.4,38.0,,,,,,,,,,,,,,,
"FLAVO_N.Hwy27 , 1101 US-27 , Avon Park , FL , 33825",27.608686,-81.515066,167740,"FLAVO_N.Hwy27 , 1101 US-27 , Avon Park , FL , 33825",1.0,0.0902303440760678,5.0,127.0,,,,,,,,,,,,,,,
"FLLAK_Hwy27 , 23461 US-27 , Lake Wales , FL , 33859",27.9519851,-81.6185727,122219,"FLLAK_Hwy27 , 23461 US-27 , Lake Wales , FL , 33859",1.0,0.0160452826351385,4.6,520.0,,,,,,,,,,,,,,,
"Fairborn Car Wash , 1052 Kauffman Ave , Fairborn , OH , 45324",39.8098171,-84.0258805,21428,"Fairborn Car Wash , 1052 Kauffman Ave , Fairborn , OH , 45324",1.0,0.444672704748619,4.1,78.0,,,,,,,,,,,,,,,
"Fairhope , 20310 AL-181 , Fairhope , AL , 36532",30.521774,-87.8517334,57901,"Fairhope , 20310 AL-181 , Fairhope , AL , 36532",0.0,,,,,,,,,,,,,,,,,,
"Fast Pass Car Wash , 638 North H Street , Lompoc , CA , 93436",34.6486028,-120.4570624,63578,"Fast Pass Car Wash , 638 North H Street , Lompoc , CA , 93436",1.0,0.160037280864418,3.9,70.0,,,,,,,,,,,,,,,
"Fenton , 3709 Owen Rd , Fenton , MI , 48430",42.7891069,-83.7442545,25365,"Fenton , 3709 Owen Rd , Fenton , MI , 48430",3.0,0.106403674950313,3.9,322.0,0.165933455368645,1.0,1.0,0.238027651264294,4.6,76.0,,,,,,,,,
"Fernandina Beach , 474339 SR 200 , Fernandina Beach , FL , 32034",30.61808,-81.514613,70790,"Fernandina Beach , 474339 SR 200 , Fernandina Beach , FL , 32034",0.0,,,,,,,,,,,,,,,,,,
"Fine N Shine , 1304 TX-121 , Bonham , TX , 75418",33.5867548,-96.1921253,38637,"Fine N Shine , 1304 TX-121 , Bonham , TX , 75418",2.0,0.410523922995745,3.6,20.0,0.738723816709997,4.1,111.0,,,,,,,,,,,,
"Five Star Boone , 1200 Blowing Rock Rd , Boone , NC , 28607",36.2034723,-81.6668446,73214,"Five Star Boone , 1200 Blowing Rock Rd , Boone , NC , 28607",1.0,0.0799894571950343,4.4,354.0,,,,,,,,,,,,,,,
"Five Star Statesville , 117 Turnersburg Hwy , Statesville , NC , 28625",35.8085295,-80.8764773,156291,"Five Star Statesville , 117 Turnersburg Hwy , Statesville , NC , 28625",0.0,,,,,,,,,,,,,,,,,,
"Fleming Island , 1725 Eagle Harbor Pkwy , Fleming Island , FL , 32003",30.1027697,-81.7048645,122376,"Fleming Island , 1725 Eagle Harbor Pkwy , Fleming Island , FL , 32003",0.0,,,,,,,,,,,,,,,,,,
"Flex Wash , 1285 U.S. 31 N , Petoskey , MI , 49770",45.3896578,-84.9129299,4226,"Flex Wash , 1285 U.S. 31 N , Petoskey , MI , 49770",1.0,0.255020515692998,4.3,472.0,,,,,,,,,,,,,,,
"Florence , 2339 David H McLeod Blvd , Florence , SC , 29501",34.1874969,-79.8197635,80517,"Florence , 2339 David H McLeod Blvd , Florence , SC , 29501",6.0,0.299186742810737,1.0,2.0,0.458236165238312,4.4,944.0,0.477224899107698,5.0,1.0,0.665930339106521,4.3,45.0,0.67352194907232,,,0.935680426386041,3.8,10.0
"FoamWorks Brunswick , 5200 Altama Ave , Brunswick , GA , 31525",31.2061049,-81.4822407,106599,"FoamWorks Brunswick , 5200 Altama Ave , Brunswick , GA , 31525",2.0,0.56062227832677,3.7,24.0,0.567551344005202,2.8,43.0,,,,,,,,,,,,
"FoamWorks Cordele , 1305 16th Ave E , Cordele , GA , 31015",31.9624515,-83.7617001,25206,"FoamWorks Cordele , 1305 16th Ave E , Cordele , GA , 31015",3.0,0.884946027426042,4.1,29.0,0.971987251431173,,,0.983305312593657,4.3,579.0,,,,,,,,,
"FoamWorks Hartley Bridge , 4701 Hartley Bridge Rd , Macon , GA , 31216",32.744358,-83.725563,79936,"FoamWorks Hartley Bridge , 4701 Hartley Bridge Rd , Macon , GA , 31216",0.0,,,,,,,,,,,,,,,,,,
"FoamWorks Lithia Springs , 369 Westfork Ct , Lithia Springs , GA , 30122",33.7942326,-84.633738,46408,"FoamWorks Lithia Springs , 369 Westfork Ct , Lithia Springs , GA , 30122",1.0,0.763000714980635,4.5,221.0,,,,,,,,,,,,,,,
"FoamWorks Riverside , 4780 Riverside Dr. , Macon , GA , 31201",32.9217734,-83.7107966,21837,"FoamWorks Riverside , 4780 Riverside Dr. , Macon , GA , 31201",0.0,,,,,,,,,,,,,,,,,,
"FoamWorks Thomaston , 5551 Thomaston Rd. , Macon , GA , 31220",32.8344408,-83.742574,51794,"FoamWorks Thomaston , 5551 Thomaston Rd. , Macon , GA , 31220",2.0,0.224445895856868,,,0.252103958608136,3.5,2.0,,,,,,,,,,,,
"FoamWorks Vidalia , 203 Rigsbee Dr , Vidalia , GA , 30474",32.2110446,-82.3949092,72841,"FoamWorks Vidalia , 203 Rigsbee Dr , Vidalia , GA , 30474",1.0,0.0984364556028751,4.5,133.0,,,,,,,,,,,,,,,
"Forest City , 157 Plaza Dr , Forest City , NC , 28043",35.3341532,-81.8970099,96485,"Forest City , 157 Plaza Dr , Forest City , NC , 28043",1.0,0.368641249549831,4.6,309.0,,,,,,,,,,,,,,,
"Fort Smith - Highway 71 , 12114 US-71 , Fort Smith , AR , 72916",35.2690562,-94.3700276,35454,"Fort Smith - Highway 71 , 12114 US-71 , Fort Smith , AR , 72916",0.0,,,,,,,,,,,,,,,,,,
"Fort Smith - Massard Rd , 5800 Massard Rd , Fort Smith , AR , 72903",35.3260818,-94.3415391,75867,"Fort Smith - Massard Rd , 5800 Massard Rd , Fort Smith , AR , 72903",0.0,,,,,,,,,,,,,,,,,,
"Fresh Wash - Braselton , Exchange Way , Braselton , GA , 30517",34.1223755,-83.7642661,93937,"Fresh Wash - Braselton , Exchange Way , Braselton , GA , 30517",1.0,0.0038780463350933,4.2,10.0,,,,,,,,,,,,,,,
"Ft Walton -Beal , 794 Beal Pkwy NW , Fort Walton Beach , FL , 32547",30.446616,-86.63932,74545,"Ft Walton -Beal , 794 Beal Pkwy NW , Fort Walton Beach , FL , 32547",1.0,0.637545931819046,4.4,93.0,,,,,,,,,,,,,,,
"GAWOO_Eagle , 2907 Eagle Dr , Woodstock , GA , 30189",34.113012,-84.5571699,116048,"GAWOO_Eagle , 2907 Eagle Dr , Woodstock , GA , 30189",0.0,,,,,,,,,,,,,,,,,,
"Galesburg , 334 E Carl Sandburg Dr , Galesburg , IL , 61401",40.9761518,-90.3654388,127061,"Galesburg , 334 E Carl Sandburg Dr , Galesburg , IL , 61401",1.0,0.982724923518437,4.8,143.0,,,,,,,,,,,,,,,
"Gallup 49 , 1060 US-491 , Gallup , NM , 87301",35.5382265,-108.7581009,130538,"Gallup 49 , 1060 US-491 , Gallup , NM , 87301",2.0,0.0066129074586161,5.0,1.0,0.225370933024029,3.9,9.0,,,,,,,,,,,,
"Gallup 66 , 1300 E Historic Hwy 66 , Gallup , NM , 87301",35.529778,-108.7220066,142804,"Gallup 66 , 1300 E Historic Hwy 66 , Gallup , NM , 87301",0.0,,,,,,,,,,,,,,,,,,
"Gardendale , 420 Fieldstown Rd , Gardendale , AL , 35071",33.6522172,-86.8173304,57848,"Gardendale , 420 Fieldstown Rd , Gardendale , AL , 35071",2.0,0.146821412796286,,,0.24437989196354,4.9,2509.0,,,,,,,,,,,,
"Georgetown , 20945 N Dupont Blvd , Georgetown , DE , 19947",38.6892922,-75.3972612,23529,"Georgetown , 20945 N Dupont Blvd , Georgetown , DE , 19947",2.0,0.25719108991501,4.1,46.0,0.575676725964131,4.0,88.0,,,,,,,,,,,,
"Go Clean Car Wash Eufaula , 1 Veteran Blvd , Eufaula , AL , 36027",31.842735,-85.1676913,69048,"Go Clean Car Wash Eufaula , 1 Veteran Blvd , Eufaula , AL , 36027",0.0,,,,,,,,,,,,,,,,,,
"Go Clean Mobile City , 6658 Mobile Hwy , Pensacola , FL , 32526",30.4763011,-87.3079223,21597,"Go Clean Mobile City , 6658 Mobile Hwy , Pensacola , FL , 32526",0.0,,,,,,,,,,,,,,,,,,
"Go Clean Monroe , 3218 N Monroe St , Tallahassee , FL , 32303",30.4864428,-84.3167069,17468,"Go Clean Monroe , 3218 N Monroe St , Tallahassee , FL , 32303",0.0,,,,,,,,,,,,,,,,,,
"Go Clean Pensacola , 8897 Pensacola Blvd , Pensacola , FL , 32534",30.5263517,-87.2756117,18400,"Go Clean Pensacola , 8897 Pensacola Blvd , Pensacola , FL , 32534",2.0,0.0241156136644284,4.3,13.0,0.767632533650267,4.0,435.0,,,,,,,,,,,,
"Granite Falls , Riverbend Club Point , Granite Falls , NC , 28630",35.7892015,-81.3806659,79611,"Granite Falls , Riverbend Club Point , Granite Falls , NC , 28630",0.0,,,,,,,,,,,,,,,,,,
"Great North Auto Wash , 2701 N Lincoln Rd , Escanaba , MI , 49829",45.780323,-87.0842742,68712,"Great North Auto Wash , 2701 N Lincoln Rd , Escanaba , MI , 49829",0.0,,,,,,,,,,,,,,,,,,
"Greenbrier - S Broadview St , 98 S Broadview St , Greenbrier , AR , 72058",35.2228379,-92.3876296,32968,"Greenbrier - S Broadview St , 98 S Broadview St , Greenbrier , AR , 72058",1.0,0.601832812821087,4.8,161.0,,,,,,,,,,,,,,,
"Grime Scene , 513 TX-114 , Levelland , TX , 79336",33.5944716,-102.3586622,114624,"Grime Scene , 513 TX-114 , Levelland , TX , 79336",1.0,0.630569422546461,1.0,1.0,,,,,,,,,,,,,,,
"Gwatzilla Car Wash , 1701 T P White Dr , Jacksonville , AR , 72076",34.8820519,-92.1105156,78324,"Gwatzilla Car Wash , 1701 T P White Dr , Jacksonville , AR , 72076",0.0,,,,,,,,,,,,,,,,,,
"H2GLO CAR WASH , 1905 Electric Rd , Cave Spring , VA , 24018",37.2475657,-80.0346677,43537,"H2GLO CAR WASH , 1905 Electric Rd , Cave Spring , VA , 24018",0.0,,,,,,,,,,,,,,,,,,
"Hall of Fame Carwash , Gateway Blvd , Leland , NC , 28451",34.213539,-78.0197913,3067,"Hall of Fame Carwash , Gateway Blvd , Leland , NC , 28451",1.0,0.446138796903038,4.6,951.0,,,,,,,,,,,,,,,
"Hampstead , 38 Dan Owen Dr , Hampstead , NC , 28443",34.3656598,-77.7116709,149967,"Hampstead , 38 Dan Owen Dr , Hampstead , NC , 28443",0.0,,,,,,,,,,,,,,,,,,
"Happy Car Wash Albany , 527 NW North Albany Rd , Albany , OR , 97321",44.6428313,-123.1126361,74502,"Happy Car Wash Albany , 527 NW North Albany Rd , Albany , OR , 97321",0.0,,,,,,,,,,,,,,,,,,
"Hercules/Elite Care Auto , 1401 Lexington Ave , Mansfield , OH , 44907",40.72053,-82.5435665,67742,"Hercules/Elite Care Auto , 1401 Lexington Ave , Mansfield , OH , 44907",1.0,0.0,4.5,311.0,,,,,,,,,,,,,,,
"Hernando , 2660 McIngvale Rd , Hernando , MS , 38632",34.8209976,-89.9712562,21874,"Hernando , 2660 McIngvale Rd , Hernando , MS , 38632",2.0,0.408943825167329,4.6,768.0,0.797028456646041,,,,,,,,,,,,,,
"Heroes Car Wash Asheville , 2000 Hendersonville Rd , Asheville , NC , 28803",35.4858828,-82.5247986,143761,"Heroes Car Wash Asheville , 2000 Hendersonville Rd , Asheville , NC , 28803",3.0,0.848195655020833,2.8,4.0,0.868233377498517,2.8,25.0,0.95706980382838,3.3,12.0,,,,,,,,,
"Heroes Express 6050 , 6050 Wade Hampton Blvd , Taylors , SC , 29687",34.9354072,-82.2761998,61903,"Heroes Express 6050 , 6050 Wade Hampton Blvd , Taylors , SC , 29687",2.0,0.0041068050325513,4.8,465.0,0.366422055888206,4.7,168.0,,,,,,,,,,,,
"Heroes Express Pleasantburg , 3107 N Pleasantburg Dr , Greenville , SC , 29609",34.8869993,-82.3956837,76797,"Heroes Express Pleasantburg , 3107 N Pleasantburg Dr , Greenville , SC , 29609",0.0,,,,,,,,,,,,,,,,,,
"Heroes Express Salisbury , 1420 E Innes St , Salisbury , NC , 28146",35.6543588,-80.4565091,125330,"Heroes Express Salisbury , 1420 E Innes St , Salisbury , NC , 28146",2.0,0.115616346085657,3.4,71.0,0.567315079846012,4.3,456.0,,,,,,,,,,,,
"Howell 2 , 4550 E Grand River Ave , Howell , MI , 48843",42.5818921,-83.8629198,6567,"Howell 2 , 4550 E Grand River Ave , Howell , MI , 48843",0.0,,,,,,,,,,,,,,,,,,
"Huntsville , 1020 Pear Drive , Huntsville , TX , 77320",30.7189698,-95.5677495,33394,"Huntsville , 1020 Pear Drive , Huntsville , TX , 77320",2.0,0.443297660245961,3.8,19.0,0.975557254345979,4.7,1378.0,,,,,,,,,,,,
"I-91 Express Wash , 168 Bridge St , East Windsor , CT , 6088",41.9312928,-72.606885,6937,"I-91 Express Wash , 168 Bridge St , East Windsor , CT , 6088",1.0,0.834284619280611,4.5,51.0,,,,,,,,,,,,,,,
"In and Out , 1430 N U.S. Hwy 41 , Ruskin , FL , 33570",27.7311395,-82.4344133,151624,"In and Out , 1430 N U.S. Hwy 41 , Ruskin , FL , 33570",0.0,,,,,,,,,,,,,,,,,,
"In-N-Out Car Wash , 12883 US-68 , Kenton , OH , 43326",40.6332275,-83.6155622,6702,"In-N-Out Car Wash , 12883 US-68 , Kenton , OH , 43326",0.0,,,,,,,,,,,,,,,,,,
"Indian Harbour , 600 E Eau Gallie Blvd , Indian Harbour , FL , 32937",28.1389437,-80.5905792,61248,"Indian Harbour , 600 E Eau Gallie Blvd , Indian Harbour , FL , 32937",0.0,,,,,,,,,,,,,,,,,,
"JC AUTO WASH , 701 S Dewey St , North Platte , NE , 69101",41.127653,-100.762632,10510,"JC AUTO WASH , 701 S Dewey St , North Platte , NE , 69101",1.0,0.466045561845281,4.4,375.0,,,,,,,,,,,,,,,
"JJ Express Car Wash , 2185 US-70 , Thatcher , AZ , 85552",32.8380212,-109.7363483,73910,"JJ Express Car Wash , 2185 US-70 , Thatcher , AZ , 85552",0.0,,,,,,,,,,,,,,,,,,
"JJ's Car Wash Dickinson , 404 FM 517 W , Dickinson , TX , 77539",29.4452705,-95.0838394,105844,,,,,,,,,,,,,,,,,,,,
"JJ's Car Wash Friendswood , 2221 W Parkwood Ave , Friendswood , TX , 77546",29.4855535,-95.2153615,103730,,,,,,,,,,,,,,,,,,,,
"Jallo - Land O Lakes , 15474 State Rd 52 , Land O' Lakes , FL , 34638",28.330187,-82.5597081,17494,,,,,,,,,,,,,,,,,,,,
"Jammin Car Wash , 21356 Walmart Way , Lutz , FL , 33548",28.1769847,-82.4647521,176984,"Jammin Car Wash , 21356 Walmart Way , Lutz , FL , 33548",0.0,,,,,,,,,,,,,,,,,,
"Jet Express Carwash , 1501 S Main St , Blacksburg , VA , 24060",37.213749,-80.3998376,49101,"Jet Express Carwash , 1501 S Main St , Blacksburg , VA , 24060",0.0,,,,,,,,,,,,,,,,,,
"Jet Express Franklin , 1121 Georgia Rd , Franklin , NC , 28734",35.158971,-83.392801,85549,"Jet Express Franklin , 1121 Georgia Rd , Franklin , NC , 28734",1.0,0.312799001589734,4.0,70.0,,,,,,,,,,,,,,,
"Jim Wood Washland , 1925 Silver City Hwy NW , Deming , NM , 88030",32.282669,-107.759936,43316,"Jim Wood Washland , 1925 Silver City Hwy NW , Deming , NM , 88030",0.0,,,,,,,,,,,,,,,,,,
"Joe's Premium Car Wash , 1905 E Robertson Blvd , Chowchilla , CA , 93610",37.126561,-120.2444694,81313,,,,,,,,,,,,,,,,,,,,
"John's Auto Spa Nappanee , 2000 E. Market St , Nappanee , IN , 46550",41.4430698,-85.9784108,34330,,,,,,,,,,,,,,,,,,,,
"KUHNSVILLE CAR WASH , 5627 Tilghman St , Allentown , PA , 18104",40.5927909,-75.5866384,74850,"KUHNSVILLE CAR WASH , 5627 Tilghman St , Allentown , PA , 18104",0.0,,,,,,,,,,,,,,,,,,
"KWIK CAR WASH , 4000 Catnip Hill Rd , Nicholasville , KY , 40356",37.9290658,-84.5501918,7910,"KWIK CAR WASH , 4000 Catnip Hill Rd , Nicholasville , KY , 40356",1.0,0.0325088022050571,4.6,8.0,,,,,,,,,,,,,,,
"KYLOU_CaneRun , 4860 Cane Run Rd , Louisville , KY , 40216",38.1806517,-85.8589994,48794,"KYLOU_CaneRun , 4860 Cane Run Rd , Louisville , KY , 40216",0.0,,,,,,,,,,,,,,,,,,
"KYWIN_Codella , 160 Codella Dr , Winchester , KY , 40391",37.9897787,-84.2095068,102636,"KYWIN_Codella , 160 Codella Dr , Winchester , KY , 40391",1.0,0.38057118229007,4.7,180.0,,,,,,,,,,,,,,,
"Kennesaw , 1585 Crater Lake Dr , Kennesaw , GA , 30152",33.9969501,-84.5907868,32521,"Kennesaw , 1585 Crater Lake Dr , Kennesaw , GA , 30152",3.0,0.355549087053591,4.9,240.0,0.440402112893462,4.5,85.0,0.677931622422736,4.0,381.0,,,,,,,,,
"King's Car Wash , 1116 W Corbett Ave , Swansboro , NC , 28584",34.7019676,-77.148783,154363,,,,,,,,,,,,,,,,,,,,
"Klemm Express , 4 Mall Road , Salem , NH , 3079",42.7693178,-71.2293634,59105,"Klemm Express , 4 Mall Road , Salem , NH , 3079",0.0,,,,,,,,,,,,,,,,,,
"Klemm Express Inbay , 4 Mall Road , Salem , NH , 3079",42.7693327,-71.2293089,18376,"Klemm Express Inbay , 4 Mall Road , Salem , NH , 3079",0.0,,,,,,,,,,,,,,,,,,
"LOUISVILLE , 1670 Alliant Ave , Louisville , KY , 40299",38.218812,-85.538056,71606,"LOUISVILLE , 1670 Alliant Ave , Louisville , KY , 40299",0.0,,,,,,,,,,,,,,,,,,
"Lafayette , 2142 N Main St , LaFayette , GA , 30728",34.7403079,-85.2723458,76885,"Lafayette , 2142 N Main St , LaFayette , GA , 30728",1.0,0.251751163613203,2.3,3.0,,,,,,,,,,,,,,,
"Lake Effect , 145 George St , Oswego , NY , 13126",43.4624732,-76.4847243,24206,"Lake Effect , 145 George St , Oswego , NY , 13126",2.0,0.0091216400021918,4.7,3.0,0.194783751690231,4.8,408.0,,,,,,,,,,,,
"Lake Wales , 2043 State Road 60 E , Lake Wales , FL , 33859",27.9031047,-81.6223701,96763,"Lake Wales , 2043 State Road 60 E , Lake Wales , FL , 33859",0.0,,,,,,,,,,,,,,,,,,
"Lakes Edge , 7916 Bradley Long Dr , Sherrills Ford , NC , 28673",35.5832605,-80.9887544,52202,"Lakes Edge , 7916 Bradley Long Dr , Sherrills Ford , NC , 28673",1.0,0.180471285530929,2.3,3.0,,,,,,,,,,,,,,,
"Lakeside Auto Wash , 617 N Mitchell St , Cadillac , MI , 49601",44.2553229,-85.4038692,110324,"Lakeside Auto Wash , 617 N Mitchell St , Cadillac , MI , 49601",1.0,0.4346968846205,3.9,147.0,,,,,,,,,,,,,,,
"Las Vegas , 2608 7th St #Nm-518 , Las Vegas , NM , 87701",35.6210093,-105.224725,108401,"Las Vegas , 2608 7th St #Nm-518 , Las Vegas , NM , 87701",0.0,,,,,,,,,,,,,,,,,,
"Legacy Express Wash , 2583 E 5th Ave , Columbus , NE , 68601",41.4412727,-97.3205261,100697,"Legacy Express Wash , 2583 E 5th Ave , Columbus , NE , 68601",1.0,0.211032354215976,1.0,1.0,,,,,,,,,,,,,,,
"Lightning Fast , 2045 W Oaklawn Rd , Pleasanton , TX , 78064",28.940437,-98.5105038,47834,"Lightning Fast , 2045 W Oaklawn Rd , Pleasanton , TX , 78064",1.0,0.181897826169544,4.2,159.0,,,,,,,,,,,,,,,
"Local Car Wash , 331 W Loudon St , Chambersburg , PA , 17201",39.9361714,-77.667148,28128,"Local Car Wash , 331 W Loudon St , Chambersburg , PA , 17201",4.0,0.0052722051155579,5.0,2.0,0.288544829432793,3.8,10.0,0.700020114069333,3.1,8.0,0.715743323834355,2.0,1.0,,,,,,
"Los Lunas , 250 Main Street NE , Los Lunas , NM , 87031",34.8070818,-106.7335652,178854,"Los Lunas , 250 Main Street NE , Los Lunas , NM , 87031",0.0,,,,,,,,,,,,,,,,,,
"Lowell Road Hudson , 215 Lowell Rd , Hudson , NH , 3051",42.7332558,-71.4259764,71157,"Lowell Road Hudson , 215 Lowell Rd , Hudson , NH , 3051",0.0,,,,,,,,,,,,,,,,,,
"MONKEY SHINE , 2518 Bob Bullock Loop , Laredo , TX , 78045",27.6139336,-99.4674955,76876,"MONKEY SHINE , 2518 Bob Bullock Loop , Laredo , TX , 78045",2.0,0.207666666201509,4.8,536.0,0.559474516856448,4.0,2.0,,,,,,,,,,,,
"MURRAY AUTO SPA , 1530 HWY 121 N BYPASS , MURRAY , KY , 42071",36.588976,-88.29729,52913,"MURRAY AUTO SPA , 1530 HWY 121 N BYPASS , MURRAY , KY , 42071",0.0,,,,,,,,,,,,,,,,,,
"Madison , 155 Plaza Blvd , Madison , AL , 35758",34.7099342,-86.7423193,19699,"Madison , 155 Plaza Blvd , Madison , AL , 35758",1.0,0.0108059662824503,,,,,,,,,,,,,,,,,
"Magic City Car Wash , 619 N Broadway , Minot , ND , 58703",48.2427558,-101.2970504,72703,"Magic City Car Wash , 619 N Broadway , Minot , ND , 58703",0.0,,,,,,,,,,,,,,,,,,
"Magic Hillsboro , 1455 N High St , Hillsboro , OH , 45133",39.227106,-83.610754,44275,"Magic Hillsboro , 1455 N High St , Hillsboro , OH , 45133",0.0,,,,,,,,,,,,,,,,,,
"Maricamp , 125 Bahia Ave Ct , Ocala , FL , 34472",29.113887,-82.021699,61973,"Maricamp , 125 Bahia Ave Ct , Ocala , FL , 34472",2.0,0.125328217588606,4.8,305.0,0.128599137461015,,,,,,,,,,,,,,
"Marshalltown , 2401 S Center St , Marshalltown , IA , 50158",42.0174381,-92.9132424,105963,"Marshalltown , 2401 S Center St , Marshalltown , IA , 50158",1.0,0.707247377891637,4.0,73.0,,,,,,,,,,,,,,,
"Maumelle - Audubon Dr , 117 Audubon Dr , Maumelle , AR , 72113",34.8516173,-92.4055153,92265,"Maumelle - Audubon Dr , 117 Audubon Dr , Maumelle , AR , 72113",0.0,,,,,,,,,,,,,,,,,,
"Moby's Car Wash , 421 E Martintown Rd , North Augusta , SC , 29841",33.4957275,-81.95777,82470,,,,,,,,,,,,,,,,,,,,
"Mojo Xpress Hopkins Center , 141 Hopkins Corner Dr , Waynesboro , GA , 30830",33.1062462,-82.0253351,50236,"Mojo Xpress Hopkins Center , 141 Hopkins Corner Dr , Waynesboro , GA , 30830",0.0,,,,,,,,,,,,,,,,,,
"Mojo Xpress Wash , 332 South Green St , Swainsboro , GA , 30401",32.5899945,-82.3302568,74400,"Mojo Xpress Wash , 332 South Green St , Swainsboro , GA , 30401",0.0,,,,,,,,,,,,,,,,,,
"Monster Car wash AZ , 6640 N Viewpoint Dr , Prescott Valley , AZ , 86315",34.6376297,-112.3364188,60785,"Monster Car wash AZ , 6640 N Viewpoint Dr , Prescott Valley , AZ , 86315",0.0,,,,,,,,,,,,,,,,,,
"Monster Wash , 7020 U.S.Highway 181 N , Floresville , TX , 78114",29.2311555,-98.245306,2716,"Monster Wash , 7020 U.S.Highway 181 N , Floresville , TX , 78114",0.0,,,,,,,,,,,,,,,,,,
"Morrilton - E Harding St , 1803 E Harding St , Morrilton , AR , 72110",35.1704143,-92.719885,18620,"Morrilton - E Harding St , 1803 E Harding St , Morrilton , AR , 72110",1.0,0.826502893919513,4.2,64.0,,,,,,,,,,,,,,,
"Mountain Edge , 200 E Commonwealth Dr , Wytheville , VA , 24382",36.9600105,-81.0960388,97847,"Mountain Edge , 200 E Commonwealth Dr , Wytheville , VA , 24382",0.0,,,,,,,,,,,,,,,,,,
"Mountain Express #1 , 226 Old Chimney Rock Rd , Hendersonville , NC , 28792",35.3457861,-82.4322737,77315,"Mountain Express #1 , 226 Old Chimney Rock Rd , Hendersonville , NC , 28792",0.0,,,,,,,,,,,,,,,,,,
"Mountain Express #2 , 821 Shepherd St , Hendersonville , NC , 28792",35.2989673,-82.4359153,74552,"Mountain Express #2 , 821 Shepherd St , Hendersonville , NC , 28792",2.0,0.753623887101345,3.7,3.0,0.934179353056605,3.7,242.0,,,,,,,,,,,,
"Mr Clean Blairsville , 262 GA-515 , Blairsville , GA , 30512",34.8794923,-83.9556608,132267,"Mr Clean Blairsville , 262 GA-515 , Blairsville , GA , 30512",1.0,0.417427409010463,4.3,245.0,,,,,,,,,,,,,,,
"Mr Clean Canton , 220 Riverstone Pkwy , Canton , GA , 30114",34.2440227,-84.488294,13286,"Mr Clean Canton , 220 Riverstone Pkwy , Canton , GA , 30114",2.0,0.380480019495274,4.0,658.0,0.511028135422659,4.5,10.0,,,,,,,,,,,,
"Mr Clean Dahlonega , 45 Morrison Moore Pkwy W , Dahlonega , GA , 30533",34.5257347,-83.9789743,5996,"Mr Clean Dahlonega , 45 Morrison Moore Pkwy W , Dahlonega , GA , 30533",1.0,0.699218459148091,4.7,154.0,,,,,,,,,,,,,,,
"Mr Clean DeBary , 215 N Charles Richard Beall Blvd , DeBary , FL , 32713",28.8994251,-81.3049194,123390,"Mr Clean DeBary , 215 N Charles Richard Beall Blvd , DeBary , FL , 32713",0.0,,,,,,,,,,,,,,,,,,
"Mr Clean Leesburg , 1396 W N Blvd , Leesburg , FL , 34748",28.8277769,-81.8866092,112995,"Mr Clean Leesburg , 1396 W N Blvd , Leesburg , FL , 34748",0.0,,,,,,,,,,,,,,,,,,
"Mr Clean Loganville , 4840 Atlanta Hwy , Loganville , GA , 30052",33.8331639,-83.8811731,111952,"Mr Clean Loganville , 4840 Atlanta Hwy , Loganville , GA , 30052",1.0,0.860775333379596,4.1,157.0,,,,,,,,,,,,,,,
"Mr Clean Orange Park , 890 Blanding Blvd , Orange Park , FL , 32065",30.1418889,-81.7681268,34341,"Mr Clean Orange Park , 890 Blanding Blvd , Orange Park , FL , 32065",3.0,0.101575213537291,4.3,128.0,0.323783754649244,4.8,57.0,0.705746458508075,4.7,137.0,,,,,,,,,
"Mr Clean Oxford , 11822 US-301 , Oxford , FL , 34484",28.9285765,-82.0378868,108192,"Mr Clean Oxford , 11822 US-301 , Oxford , FL , 34484",0.0,,,,,,,,,,,,,,,,,,
"Mr Clean Sharpsburg , 18 Bailey Station Dr , Sharpsburg , GA , 30277",33.4081197,-84.6736447,97569,"Mr Clean Sharpsburg , 18 Bailey Station Dr , Sharpsburg , GA , 30277",0.0,,,,,,,,,,,,,,,,,,
"Mr D Car Wash , 525 E Sumner St , Hartford , WI , 53027",43.3168236,-88.3718484,38605,"Mr D Car Wash , 525 E Sumner St , Hartford , WI , 53027",0.0,,,,,,,,,,,,,,,,,,
"Mr. B's Car Wash - Sumiton , 878 Hwy 78 , Sumiton , AL , 35148",33.7450899,-87.0469626,50678,,,,,,,,,,,,,,,,,,,,
"My Wash , 3804 S Western , Marion , IN , 46953",40.523313,-85.6753078,116051,"My Wash , 3804 S Western , Marion , IN , 46953",2.0,0.377649508015356,4.2,339.0,0.926586907358292,3.0,2.0,,,,,,,,,,,,
"NCGOL_N.Berkeley , 508 N Berkeley Blvd , Goldsboro , NC , 27534",35.3745497,-77.9443943,110163,"NCGOL_N.Berkeley , 508 N Berkeley Blvd , Goldsboro , NC , 27534",3.0,0.351361606662514,3.9,215.0,0.650219929130373,3.9,144.0,0.800244888406783,3.9,171.0,,,,,,,,,
"NCHOL_GrandHill , 301 Grand Hill Pl , Holly Springs , NC , 27540",35.6656692,-78.8438361,92523,"NCHOL_GrandHill , 301 Grand Hill Pl , Holly Springs , NC , 27540",0.0,,,,,,,,,,,,,,,,,,
"New Shackle Island , 271 New Shackle Island Rd , Hendersonville , TN , 37075",36.3184762,-86.6253516,50210,"New Shackle Island , 271 New Shackle Island Rd , Hendersonville , TN , 37075",0.0,,,,,,,,,,,,,,,,,,
"North Deland , 104 E International Speedway Blvd , DeLand , FL , 32724",29.0539905,-81.3026516,133166,"North Deland , 104 E International Speedway Blvd , DeLand , FL , 32724",2.0,0.0005011985913957,4.4,951.0,0.61689699145275,4.9,1754.0,,,,,,,,,,,,
"North Port CW , 14164 Tamiami Trail , North Port , FL , 34287",27.043727,-82.2395995,31140,"North Port CW , 14164 Tamiami Trail , North Port , FL , 34287",0.0,,,,,,,,,,,,,,,,,,
"OCTOPUS CAR WASH , 1050 W Beta St , Green Valley , AZ , 85614",31.9024319,-110.9867705,76552,"OCTOPUS CAR WASH , 1050 W Beta St , Green Valley , AZ , 85614",0.0,,,,,,,,,,,,,,,,,,
"Ocala -Silver Springs , 4956 E Silver Springs Blvd , Ocala , FL , 34470",29.2100496,-82.0658882,169360,"Ocala -Silver Springs , 4956 E Silver Springs Blvd , Ocala , FL , 34470",0.0,,,,,,,,,,,,,,,,,,
"Ocean Express , 9640 Federal Blvd , Federal Heights , CO , 80260",39.8715564,-105.0241903,158636,"Ocean Express , 9640 Federal Blvd , Federal Heights , CO , 80260",5.0,0.370968409134319,3.7,81.0,0.60556570883531,3.4,10.0,0.783795297645365,4.0,1.0,0.911542571439578,2.0,1.0,0.915564636525047,3.0,2.0,,,
"Ogeechee , 5909 Ogeechee Rd , Savannah , GA , 31419",31.997541,-81.2525169,24454,"Ogeechee , 5909 Ogeechee Rd , Savannah , GA , 31419",0.0,,,,,,,,,,,,,,,,,,
"Ollie Wash Henderson , 2700 US Hwy. 41 N , Henderson , KY , 42420",37.8755239,-87.5672191,72081,"Ollie Wash Henderson , 2700 US Hwy. 41 N , Henderson , KY , 42420",1.0,0.889977120842434,3.5,52.0,,,,,,,,,,,,,,,
"Ollie Wash Owensboro , 3850 Frederica St , Owensboro , KY , 42301",37.7343692,-87.1206966,171650,"Ollie Wash Owensboro , 3850 Frederica St , Owensboro , KY , 42301",1.0,0.712029844691448,4.9,238.0,,,,,,,,,,,,,,,
"Orange City , 1310 S Volusia Ave , Orange City , FL , 32763",28.9337218,-81.2984532,76364,"Orange City , 1310 S Volusia Ave , Orange City , FL , 32763",1.0,0.0965128730179209,,,,,,,,,,,,,,,,,
"Ottumwa , 1941 Venture Dr , Ottumwa , IA , 52501",41.01523,-92.456148,84016,"Ottumwa , 1941 Venture Dr , Ottumwa , IA , 52501",2.0,0.932082239508056,4.1,71.0,0.939750718942675,1.5,2.0,,,,,,,,,,,,
"Oxford , 1826 US-78 , Oxford , AL , 36203",33.5957609,-85.8750204,112892,"Oxford , 1826 US-78 , Oxford , AL , 36203",0.0,,,,,,,,,,,,,,,,,,
"PASTIME AUTO WASH , 2610 OLIVE HIGHWAY , OROVILLE , CA , 95966",39.5053791,-121.5444403,40464,"PASTIME AUTO WASH , 2610 OLIVE HIGHWAY , OROVILLE , CA , 95966",0.0,,,,,,,,,,,,,,,,,,
"Palatka , 812 FL-19 , Palatka , FL , 32177",29.6401112,-81.6772984,98235,"Palatka , 812 FL-19 , Palatka , FL , 32177",1.0,0.54550871721469,4.1,395.0,,,,,,,,,,,,,,,
"Palm Coast , 6030 Old Kings Rd S , Palm Coast , FL , 32137",29.4772142,-81.1809069,57881,"Palm Coast , 6030 Old Kings Rd S , Palm Coast , FL , 32137",0.0,,,,,,,,,,,,,,,,,,
"Papa Bear Anderson 2 , 1500 Pearman Dairy Rd , Anderson , SC , 29625",34.53198,-82.6963294,65744,"Papa Bear Anderson 2 , 1500 Pearman Dairy Rd , Anderson , SC , 29625",1.0,0.66199841718912,3.9,161.0,,,,,,,,,,,,,,,
"Papa Bear Easley , 5260 Calhoun Memorial Hwy , Easley , SC , 29640",34.8261114,-82.5618856,167211,"Papa Bear Easley , 5260 Calhoun Memorial Hwy , Easley , SC , 29640",3.0,0.0133103428152647,,,0.13577971434634,4.4,62.0,0.783019641670521,2.6,48.0,,,,,,,,,
"Paradise 2 , 4350 Austell Rd , Austell , GA , 30106",33.8474699,-84.6095148,61664,"Paradise 2 , 4350 Austell Rd , Austell , GA , 30106",0.0,,,,,,,,,,,,,,,,,,
"Pat's NU Star - Winter Haven , 619 Cypress Gardens Blvd , Winter Haven , FL , 33880",28.0044428,-81.7177581,28995,,,,,,,,,,,,,,,,,,,,
"Peachy Clean , 1301 US-31 , Clanton , AL , 35045",32.8194376,-86.6104121,62441,"Peachy Clean , 1301 US-31 , Clanton , AL , 35045",0.0,,,,,,,,,,,,,,,,,,
"Pelican Car Wash , 13020 US-1 , Sebastian , FL , 32958",27.8321463,-80.4806875,12618,"Pelican Car Wash , 13020 US-1 , Sebastian , FL , 32958",0.0,,,,,,,,,,,,,,,,,,
"Peppy's Car Wash , 101 W University Pkwy , Jackson , TN , 38305",35.6963252,-88.8329326,137989,,,,,,,,,,,,,,,,,,,,
"Peppy's Car Wash Union City , 1315 Old Troy Rd , Union City , TN , 38261",36.4164336,-89.0730822,34834,,,,,,,,,,,,,,,,,,,,
"Phenix City , 3709 US-431 , Phenix City , AL , 36867",32.497545,-85.0446581,166387,"Phenix City , 3709 US-431 , Phenix City , AL , 36867",0.0,,,,,,,,,,,,,,,,,,
"Pirates Cove Goldsboro , 110 Mollie Drive , Goldsboro , NC , 27534",35.339245,-77.919017,21809,"Pirates Cove Goldsboro , 110 Mollie Drive , Goldsboro , NC , 27534",1.0,0.482715797804337,4.7,10.0,,,,,,,,,,,,,,,
"Plaistow Road Haverhill , 73 Plaistow Rd , Haverhill , MA , 1830",42.813419,-71.1021821,80384,"Plaistow Road Haverhill , 73 Plaistow Rd , Haverhill , MA , 1830",1.0,0.0012022795315952,3.9,155.0,,,,,,,,,,,,,,,
"Plantation Island , 1430 Plantation Island Dr S , St. Augustine , FL , 32080",29.8652652,-81.2982865,4789,"Plantation Island , 1430 Plantation Island Dr S , St. Augustine , FL , 32080",0.0,,,,,,,,,,,,,,,,,,
"Platinum Auto Spa , 2303 6th Ave SE , Aberdeen , SD , 57401",45.4599517,-98.4546109,97823,"Platinum Auto Spa , 2303 6th Ave SE , Aberdeen , SD , 57401",0.0,,,,,,,,,,,,,,,,,,
"Polished Peach Car Wash , 1490 Towne Lake Pkwy , Woodstock , GA , 30189",34.1057206,-84.5433192,28169,"Polished Peach Car Wash , 1490 Towne Lake Pkwy , Woodstock , GA , 30189",1.0,0.930481862313137,4.2,385.0,,,,,,,,,,,,,,,
"Pooler , 420 Pooler Pkwy , Pooler , GA , 31322",32.1370935,-81.2545339,1903,"Pooler , 420 Pooler Pkwy , Pooler , GA , 31322",1.0,0.506079510299702,4.1,627.0,,,,,,,,,,,,,,,
"Precision Xpress CarWash , 2106 S Main St , Lindale , TX , 75771",32.4883669,-95.3982816,62909,"Precision Xpress CarWash , 2106 S Main St , Lindale , TX , 75771",0.0,,,,,,,,,,,,,,,,,,
"Prestige Car Wash , 10004 Brownsboro Rd , Louisville , KY , 40241",38.3143963,-85.5627054,155931,"Prestige Car Wash , 10004 Brownsboro Rd , Louisville , KY , 40241",0.0,,,,,,,,,,,,,,,,,,
"Pueblo , 2323 W Pueblo Blvd , Pueblo , CO , 81004",38.219339,-104.638418,58183,"Pueblo , 2323 W Pueblo Blvd , Pueblo , CO , 81004",1.0,0.981742213115141,5.0,1.0,,,,,,,,,,,,,,,
"Pure Car Wash , 330 Anna Dr , McComb , MS , 39648",31.242485,-90.4795296,96010,"Pure Car Wash , 330 Anna Dr , McComb , MS , 39648",0.0,,,,,,,,,,,,,,,,,,
"Quick Jet Car Wash , 1217 Dolly Parton Pkwy , Sevierville , TN , 37862",35.8632117,-83.5282174,91140,"Quick Jet Car Wash , 1217 Dolly Parton Pkwy , Sevierville , TN , 37862",0.0,,,,,,,,,,,,,,,,,,
"RACCOON EXPRESS CW , 495 Lafayette Rd , Seabrook , NH , 3874",42.889469,-70.872266,203514,"RACCOON EXPRESS CW , 495 Lafayette Rd , Seabrook , NH , 3874",1.0,0.970061738406087,4.1,70.0,,,,,,,,,,,,,,,
"RAINDANCER OF GLENVILLE , 172 Freemans Bridge Rd , Schenectady , NY , 12302",42.8466008,-73.9416205,18676,"RAINDANCER OF GLENVILLE , 172 Freemans Bridge Rd , Schenectady , NY , 12302",0.0,,,,,,,,,,,,,,,,,,
"RED ROCKET CAR WASH #1 , 47 Golfview Dr NE , Arab , AL , 35016",34.3438549,-86.5015317,55050,"RED ROCKET CAR WASH #1 , 47 Golfview Dr NE , Arab , AL , 35016",0.0,,,,,,,,,,,,,,,,,,
"RED ROCKET CAR WASH #2 , 2110 Redstone Rd SW , Huntsville , AL , 35803",34.6176307,-86.5687864,57223,"RED ROCKET CAR WASH #2 , 2110 Redstone Rd SW , Huntsville , AL , 35803",2.0,0.262874366466323,4.6,349.0,0.767316706107142,4.3,83.0,,,,,,,,,,,,
"RIVERHEAD TOYOTA CAR WASH , 1655 County Rd 58 , Riverhead , NY , 11901",40.9240907,-72.6984365,9981,"RIVERHEAD TOYOTA CAR WASH , 1655 County Rd 58 , Riverhead , NY , 11901",0.0,,,,,,,,,,,,,,,,,,
"ROCK & ROLL CW , 8320 W Judge Perez Dr , Chalmette , LA , 70043",29.9531318,-89.9797697,96279,,,,,,,,,,,,,,,,,,,,
"Radiant Apollo Beach , 6576 US Hwy 41 , Apollo Beach , FL , 33572",27.7731377,-82.3902847,135298,"Radiant Apollo Beach , 6576 US Hwy 41 , Apollo Beach , FL , 33572",0.0,,,,,,,,,,,,,,,,,,
"Radiant Auburndale , 2049 US-92 , Auburndale , FL , 33823",28.0573484,-81.8121995,162809,"Radiant Auburndale , 2049 US-92 , Auburndale , FL , 33823",0.0,,,,,,,,,,,,,,,,,,
"Radiant Land O' Lakes , 4230 Land O' Lakes Blvd , Land O' Lakes , FL , 34639",28.2424856,-82.4427769,101764,,,,,,,,,,,,,,,,,,,,
"Radiant Poinciana , 925 Cypress Pkwy , Kissimmee , FL , 34759",28.1481414,-81.4462145,153366,"Radiant Poinciana , 925 Cypress Pkwy , Kissimmee , FL , 34759",0.0,,,,,,,,,,,,,,,,,,
"Radiant Spring Hill , 7104 Mariner Blvd , Spring Hill , FL , 34609",28.5308742,-82.5110397,101812,"Radiant Spring Hill , 7104 Mariner Blvd , Spring Hill , FL , 34609",2.0,0.625381345194441,4.9,579.0,0.805697259785198,4.4,1615.0,,,,,,,,,,,,
"Radiant Zephyrhills , 7575 Gall Blvd , Zephyrhills , FL , 33541",28.2677868,-82.1889848,28277,"Radiant Zephyrhills , 7575 Gall Blvd , Zephyrhills , FL , 33541",0.0,,,,,,,,,,,,,,,,,,
"Rio Rancho North , 507 NM-528 NE , Rio Rancho , NM , 87144",35.2668562,-106.6276302,19006,"Rio Rancho North , 507 NM-528 NE , Rio Rancho , NM , 87144",0.0,,,,,,,,,,,,,,,,,,
"Riptide Dallas , 1001 Dallas Cherryville Hwy , Dallas , NC , 28034",35.3153389,-81.189865,66815,"Riptide Dallas , 1001 Dallas Cherryville Hwy , Dallas , NC , 28034",4.0,0.0046516361349606,3.0,9.0,0.0054187116056185,4.2,92.0,0.254323934963665,3.4,69.0,0.322107901659866,3.6,22.0,,,,,,
"Riptide Durham , 3639 Durham-Chapel Hill Blvd , Durham , NC , 27707",35.97045,-78.9507861,102295,"Riptide Durham , 3639 Durham-Chapel Hill Blvd , Durham , NC , 27707",0.0,,,,,,,,,,,,,,,,,,
"Riptide Gastonia , 3711 E Franklin Blvd , Gastonia , NC , 28056",35.2572225,-81.1140765,162118,"Riptide Gastonia , 3711 E Franklin Blvd , Gastonia , NC , 28056",0.0,,,,,,,,,,,,,,,,,,
"Riptide Neuse , 13150 Falls of Neuse Rd , Raleigh , NC , 27614",35.9412871,-78.5612498,84062,"Riptide Neuse , 13150 Falls of Neuse Rd , Raleigh , NC , 27614",0.0,,,,,,,,,,,,,,,,,,
"Riptide Spring Lake , 1101 N Bragg Blvd , Spring Lake , NC , 28390",35.1804403,-78.9818916,19882,"Riptide Spring Lake , 1101 N Bragg Blvd , Spring Lake , NC , 28390",2.0,0.54762828303041,,,0.794698452018428,3.9,28.0,,,,,,,,,,,,
"Riverside Ionia , 1370 S State Rd , Ionia , MI , 48846",42.9685416,-85.0698982,57946,"Riverside Ionia , 1370 S State Rd , Ionia , MI , 48846",0.0,,,,,,,,,,,,,,,,,,
"Riverside Lowell , 1941 W Main St , Lowell , MI , 49331",42.931854,-85.3592788,109717,"Riverside Lowell , 1941 W Main St , Lowell , MI , 49331",0.0,,,,,,,,,,,,,,,,,,
"Road Runner Express #2 , 101 Market Center Way , Daleville , VA , 24083",37.4169786,-79.9111846,14373,"Road Runner Express #2 , 101 Market Center Way , Daleville , VA , 24083",1.0,0.516553094689688,3.9,176.0,,,,,,,,,,,,,,,
"Road Runner Express , 7816 Timberlake Rd , Lynchburg , VA , 24502",37.351769,-79.2267214,52822,"Road Runner Express , 7816 Timberlake Rd , Lynchburg , VA , 24502",1.0,0.371664868417996,4.4,432.0,,,,,,,,,,,,,,,
"Roadrunner Express Mukwonago , 811 S Rochester St , Mukwonago , WI , 53149",42.8556672,-88.3274265,75350,"Roadrunner Express Mukwonago , 811 S Rochester St , Mukwonago , WI , 53149",1.0,0.249188755086856,3.8,26.0,,,,,,,,,,,,,,,
"Roadrunner Express New Berlin , 5275 S Moorland Rd , New Berlin , WI , 53151",42.9485381,-88.1097854,48244,"Roadrunner Express New Berlin , 5275 S Moorland Rd , New Berlin , WI , 53151",1.0,0.245470400183808,4.5,204.0,,,,,,,,,,,,,,,
"Rocket Wash Foothills , 3985 US-421 , Wilkesboro , NC , 28697",36.1493091,-81.2308643,47294,"Rocket Wash Foothills , 3985 US-421 , Wilkesboro , NC , 28697",0.0,,,,,,,,,,,,,,,,,,
"Rocket Wash Mebane , 211 Fieldale Rd , Mebane , NC , 27302",36.0759804,-79.2749994,82445,"Rocket Wash Mebane , 211 Fieldale Rd , Mebane , NC , 27302",2.0,0.0796598521512372,4.1,479.0,0.731891636632309,4.9,1795.0,,,,,,,,,,,,
"Rocket Wash Rome , 694 Braves Blvd NE , Rome , GA , 30161",34.2837964,-85.1672328,32188,"Rocket Wash Rome , 694 Braves Blvd NE , Rome , GA , 30161",0.0,,,,,,,,,,,,,,,,,,
"Rocket Wash Wilkesboro , 1846 US-421 , Wilkesboro , NC , 28697",36.1506819,-81.1992276,80986,"Rocket Wash Wilkesboro , 1846 US-421 , Wilkesboro , NC , 28697",0.0,,,,,,,,,,,,,,,,,,
"Rockmart , 1931 Nathan Dean Pkwy , Rockmart , GA , 30153",34.0092289,-85.0306115,6729,"Rockmart , 1931 Nathan Dean Pkwy , Rockmart , GA , 30153",1.0,0.160966445969937,4.2,494.0,,,,,,,,,,,,,,,
"Rocks Edge , 116 Carmel Dr , King , NC , 27021",36.2624481,-80.365563,99507,"Rocks Edge , 116 Carmel Dr , King , NC , 27021",0.0,,,,,,,,,,,,,,,,,,
"Rogue Carwash , 819 SE Mill St , Grants Pass , OR , 97526",42.4311527,-123.318906,72733,"Rogue Carwash , 819 SE Mill St , Grants Pass , OR , 97526",2.0,0.572429413672433,4.5,435.0,0.943140152514822,4.2,80.0,,,,,,,,,,,,
"Rolling Thunder , 800 E Main St , Palmyra , PA , 17078",40.312316,-76.585092,63971,"Rolling Thunder , 800 E Main St , Palmyra , PA , 17078",1.0,0.805529148827778,,,,,,,,,,,,,,,,,
"Royal Pines , 3454 Royal Pines Dr , Middleburg , FL , 32068",30.1588835,-81.8357776,23954,"Royal Pines , 3454 Royal Pines Dr , Middleburg , FL , 32068",0.0,,,,,,,,,,,,,,,,,,
"Royal Splash Car Wash , 21 Cape Rd , Mendon , MA , 1756",42.0997802,-71.5037789,36762,"Royal Splash Car Wash , 21 Cape Rd , Mendon , MA , 1756",0.0,,,,,,,,,,,,,,,,,,
"Rub A Dub , 707 Taugenbaugh Blvd , Rifle , CO , 81650",39.5216905,-107.7771586,16143,"Rub A Dub , 707 Taugenbaugh Blvd , Rifle , CO , 81650",0.0,,,,,,,,,,,,,,,,,,
"Russellville - E Main St , 2610 E Main St , Russellville , AR , 72802",35.2778085,-93.1033689,71951,"Russellville - E Main St , 2610 E Main St , Russellville , AR , 72802",2.0,0.307848400052902,4.4,761.0,0.988088108572066,4.1,618.0,,,,,,,,,,,,
"SIMPLY CLEAN CW (VALLEY CW) , 64 Pershing Dr , Ansonia , CT , 6401",41.3346732,-73.0831786,25103,"SIMPLY CLEAN CW (VALLEY CW) , 64 Pershing Dr , Ansonia , CT , 6401",0.0,,,,,,,,,,,,,,,,,,
"SQUEAKY CLEAN CW 2 , 3931 Cerrillos Rd , Santa Fe , NM , 87507",35.6427019,-106.0134847,26695,"SQUEAKY CLEAN CW 2 , 3931 Cerrillos Rd , Santa Fe , NM , 87507",2.0,0.328400503913486,4.3,451.0,0.493643306617349,4.5,796.0,,,,,,,,,,,,
"STEESE , 720 Old Steese Hwy , Fairbanks , AK , 99701",64.8515089,-147.6945971,74221,"STEESE , 720 Old Steese Hwy , Fairbanks , AK , 99701",2.0,0.0162851708412033,4.3,6.0,0.192063160652772,,,,,,,,,,,,,,
"SUPER SPRAY , 1581 S Muskogee Ave , Tahlequah , OK , 74464",35.8956029,-94.9762402,24724,"SUPER SPRAY , 1581 S Muskogee Ave , Tahlequah , OK , 74464",2.0,0.595700582707502,4.1,82.0,0.998367942791382,4.6,114.0,,,,,,,,,,,,
"SUPERIOR MERMAID CAR WASH , 1750 NORTH PARK DRIVE , KINGWOOD , TX , 77339",30.0680683,-95.2282134,24036,"SUPERIOR MERMAID CAR WASH , 1750 NORTH PARK DRIVE , KINGWOOD , TX , 77339",4.0,0.519212258432151,4.8,1439.0,0.81171552397908,3.5,6.0,0.980983397608932,4.3,6.0,0.981302013389311,1.8,4.0,,,,,,
"SUPERIOR TOMBALL CARWASH , 27840 Tomball Pkwy , Tomball , TX , 77375",30.0797196,-95.6287169,57295,"SUPERIOR TOMBALL CARWASH , 27840 Tomball Pkwy , Tomball , TX , 77375",2.0,0.0065423043434584,3.1,14.0,0.902552378372179,4.7,1474.0,,,,,,,,,,,,
"Salt Lick , 297 Salt Lick Rd , St. Peters , MO , 63376",38.7990011,-90.6550622,14883,"Salt Lick , 297 Salt Lick Rd , St. Peters , MO , 63376",2.0,0.115695169767549,,,0.117698753783419,3.5,18.0,,,,,,,,,,,,
"San Jose 2 , 9826 San Jose Blvd , Jacksonville , FL , 32257",30.1993973,-81.6204269,81435,"San Jose 2 , 9826 San Jose Blvd , Jacksonville , FL , 32257",1.0,0.408487838579326,4.3,84.0,,,,,,,,,,,,,,,
"Santa Fe , 4410 Rodeo Rd , Santa Fe , NM , 87507",35.638209,-106.0127505,133962,"Santa Fe , 4410 Rodeo Rd , Santa Fe , NM , 87507",1.0,0.707169200144859,4.5,796.0,,,,,,,,,,,,,,,
"Saratoga Honda , 3402 US-9 , Saratoga Springs , NY , 12866",43.057525,-73.7870143,9629,"Saratoga Honda , 3402 US-9 , Saratoga Springs , NY , 12866",0.0,,,,,,,,,,,,,,,,,,
"Scarborough Car Wash , 1448 FM 66 , Waxahachie , TX , 75165",32.3740716,-96.8662375,24694,"Scarborough Car Wash , 1448 FM 66 , Waxahachie , TX , 75165",0.0,,,,,,,,,,,,,,,,,,
"Seaway Car Wash North , 142 Heineberg Drive , Colchester , VT , 5446",44.53489,-73.249658,29408,"Seaway Car Wash North , 142 Heineberg Drive , Colchester , VT , 5446",0.0,,,,,,,,,,,,,,,,,,
"Seaway Car Wash South #2 , 1341 Shelburne Rd , South Burlington , VT , 5403",44.4322445,-73.2115366,25034,"Seaway Car Wash South #2 , 1341 Shelburne Rd , South Burlington , VT , 5403",1.0,0.624012499893391,4.3,137.0,,,,,,,,,,,,,,,
"Seaway Car Wash South , 1341 Shelburne Rd , South Burlington , VT , 5403",44.4322445,-73.2115366,54258,"Seaway Car Wash South , 1341 Shelburne Rd , South Burlington , VT , 5403",1.0,0.624012499893391,4.3,137.0,,,,,,,,,,,,,,,
"Senatobia , 328 E Main St , Senatobia , MS , 38668",34.6197427,-89.9562586,91856,"Senatobia , 328 E Main St , Senatobia , MS , 38668",1.0,0.019353071697491,3.7,6.0,,,,,,,,,,,,,,,
"Sherwood - E Kiehl Ave , 3610 E Kiehl Ave , Sherwood , AR , 72120",34.8316898,-92.1924256,60745,"Sherwood - E Kiehl Ave , 3610 E Kiehl Ave , Sherwood , AR , 72120",0.0,,,,,,,,,,,,,,,,,,
"Shortman Car Wash , 1001 N Main St , Miami , OK , 74354",36.8867079,-94.8779151,11526,"Shortman Car Wash , 1001 N Main St , Miami , OK , 74354",1.0,0.179037809786047,1.0,1.0,,,,,,,,,,,,,,,
"Silver City , 1870 US-180 , Silver City , NM , 88061",32.7861869,-108.2554652,92350,"Silver City , 1870 US-180 , Silver City , NM , 88061",0.0,,,,,,,,,,,,,,,,,,
"Smitty's Car Wash Fredericksburg , 513 S Adams St , Fredericksburg , TX , 78624",30.2686406,-98.8775051,10619,,,,,,,,,,,,,,,,,,,,
"Smitty's Car Wash Greenville , 6112 Wesley St , Greenville , TX , 75402",33.1078395,-96.1100705,35010,,,,,,,,,,,,,,,,,,,,
"Smitty's Car Wash Kerrville , 301 Sidney Baker St , Kerrville , TX , 78028",30.0424562,-99.1448947,65827,,,,,,,,,,,,,,,,,,,,
"Smitty's Car Wash Lindale , 13776 US Hwy 69 N , Tyler , TX , 75706",32.4668192,-95.3857957,50211,,,,,,,,,,,,,,,,,,,,
"Smitty's Car Wash Lufkin , 1808 S First St , Lufkin , TX , 75901",31.3147004,-94.7281932,149975,,,,,,,,,,,,,,,,,,,,
"Smitty's Car Wash Marshall , 1500 E End Blvd N , Marshall , TX , 75672",32.5568335,-94.3493365,42468,,,,,,,,,,,,,,,,,,,,
"Smitty's Car Wash Princeton , 400 E Princeton Dr , Princeton , TX , 75407",33.1746057,-96.4854304,9153,,,,,,,,,,,,,,,,,,,,
"Snap Clean , 110 N Elm Street , Ennis , TX , 75119",32.3327117,-96.619208,106841,"Snap Clean , 110 N Elm Street , Ennis , TX , 75119",2.0,0.173935962070833,3.0,2.0,0.813659648783544,2.8,58.0,,,,,,,,,,,,
"Soak City Car Wash , 116 Jane St , Berea , KY , 40403",37.56632,-84.3109343,71117,"Soak City Car Wash , 116 Jane St , Berea , KY , 40403",0.0,,,,,,,,,,,,,,,,,,
"Soapy J's , 626 Norh 12 Street , Middlesboro , KY , 40965",36.6144347,-83.7027468,88020,,,,,,,,,,,,,,,,,,,,
"Soapy Nobles 219 S Westfield St Ag , 219 S Westfield St , Agawam , MA , 1030",42.0599321,-72.6756952,45788,"Soapy Nobles 219 S Westfield St Ag , 219 S Westfield St , Agawam , MA , 1030",0.0,,,,,,,,,,,,,,,,,,
"Soapy Nobles 76 N Rd East Windsor CT , 76 N Rd , East Windsor , CT , 6088",41.9319611,-72.5918196,45773,"Soapy Nobles 76 N Rd East Windsor CT , 76 N Rd , East Windsor , CT , 6088",0.0,,,,,,,,,,,,,,,,,,
"Soapy Sam's , 15046 IN-23 , Granger , IN , 46530",41.7324112,-86.15926,36589,,,,,,,,,,,,,,,,,,,,
"Soggy Dog CW , 714 Ritter Dr , Glen Morgan , WV , 25813",37.7497066,-81.1410774,26247,"Soggy Dog CW , 714 Ritter Dr , Glen Morgan , WV , 25813",0.0,,,,,,,,,,,,,,,,,,
"Sonic Suds Simpsonville , 703 SE Main St , Simpsonville , SC , 29681",34.7219085,-82.252667,118209,"Sonic Suds Simpsonville , 703 SE Main St , Simpsonville , SC , 29681",1.0,0.123992197334237,4.8,671.0,,,,,,,,,,,,,,,
"South Deland , 1810 S Woodland Blvd , DeLand , FL , 32720",28.9965731,-81.3032381,152000,"South Deland , 1810 S Woodland Blvd , DeLand , FL , 32720",0.0,,,,,,,,,,,,,,,,,,
"Southaven , 1101 Church Rd W , Southaven , MS , 38671",34.9330158,-90.0089691,130907,"Southaven , 1101 Church Rd W , Southaven , MS , 38671",1.0,0.185242095878233,3.9,36.0,,,,,,,,,,,,,,,
"Spectacular 1830 , 1830 E. Hwy 80 , Somerset , KY , 42503",37.1011409,-84.5898025,3596,"Spectacular 1830 , 1830 E. Hwy 80 , Somerset , KY , 42503",0.0,,,,,,,,,,,,,,,,,,
"Spectacular 1990 , 1990 Oak Hill Road , Somerset , KY , 42503",37.0579482,-84.6462024,11820,"Spectacular 1990 , 1990 Oak Hill Road , Somerset , KY , 42503",1.0,0.0205384233406502,4.2,38.0,,,,,,,,,,,,,,,
"Spectacular 954 , 954 US-27 , Somerset , KY , 42501",36.9524362,-84.5786258,17500,"Spectacular 954 , 954 US-27 , Somerset , KY , 42501",0.0,,,,,,,,,,,,,,,,,,
"Speedy Pete's Car Wash , 1205 Maxwell Blvd , Ruston , LA , 71270",32.541285,-92.633638,64878,,,,,,,,,,,,,,,,,,,,
"Splash Brothers Wolfforth , 716 Donald Preston Dr , Wolfforth , TX , 79382",33.52042,-102.0038528,69863,"Splash Brothers Wolfforth , 716 Donald Preston Dr , Wolfforth , TX , 79382",0.0,,,,,,,,,,,,,,,,,,
"Splash Hopper Express , 863 Western Bypass , Andalusia , AL , 36420",31.2980899,-86.499031,76377,"Splash Hopper Express , 863 Western Bypass , Andalusia , AL , 36420",2.0,0.527557152782788,4.1,70.0,0.539635104842256,4.2,117.0,,,,,,,,,,,,
"Splash N Foam , 705 Fannin St , George West , TX , 78022",28.3306261,-98.1165219,9199,"Splash N Foam , 705 Fannin St , George West , TX , 78022",1.0,0.0568241564188855,3.1,8.0,,,,,,,,,,,,,,,
"Suds Bucket Wash , 615 landmark Point Blvd. Suite B , Gray , GA , 31032",32.9897907,-83.5691835,75792,"Suds Bucket Wash , 615 landmark Point Blvd. Suite B , Gray , GA , 31032",0.0,,,,,,,,,,,,,,,,,,
"Suds Deluxe Kyle , 18810 IH 35 , Kyle , TX , 78640",30.0342462,-97.847338,242588,"Suds Deluxe Kyle , 18810 IH 35 , Kyle , TX , 78640",0.0,,,,,,,,,,,,,,,,,,
"Sudzy's Car Wash , 2624 Anderson Hwy , Powhatan , VA , 23139",37.5243866,-77.8264842,61688,,,,,,,,,,,,,,,,,,,,
"Summerville , 10805 Commerce St , Summerville , GA , 30747",34.4900693,-85.3417458,62814,"Summerville , 10805 Commerce St , Summerville , GA , 30747",0.0,,,,,,,,,,,,,,,,,,
"Sun Splash , 914 N Stratford Rd , Moses Lake , WA , 98837",47.1408544,-119.2794176,142368,"Sun Splash , 914 N Stratford Rd , Moses Lake , WA , 98837",3.0,0.191766843200659,4.0,172.0,0.909489192984283,4.5,2.0,0.91207719622718,3.8,167.0,,,,,,,,,
"Sunny Daze Car Wash , 609 N Mayo Trl , Paintsville , KY , 41240",37.8254161,-82.8228864,11197,"Sunny Daze Car Wash , 609 N Mayo Trl , Paintsville , KY , 41240",0.0,,,,,,,,,,,,,,,,,,
"Super Duck Hazel Green , 14533 US-231 , Hazel Green , AL , 35750",34.9431964,-86.5724199,77932,"Super Duck Hazel Green , 14533 US-231 , Hazel Green , AL , 35750",0.0,,,,,,,,,,,,,,,,,,
"THOMAS CAR WASH , 218 Blueberry Ln , Nicholasville , KY , 40356",37.891331,-84.56775,25346,"THOMAS CAR WASH , 218 Blueberry Ln , Nicholasville , KY , 40356",2.0,0.665261364713205,4.1,35.0,0.923192450434191,4.1,147.0,,,,,,,,,,,,
"TLC Car Wash 2 , 1001 W Main St , Salem , VA , 24153",37.2907386,-80.0740891,19114,"TLC Car Wash 2 , 1001 W Main St , Salem , VA , 24153",2.0,0.0016420389128519,4.1,143.0,0.649695152644245,4.6,558.0,,,,,,,,,,,,
"TXGRA_Hwy377 , 3601 E US Hwy 377 , Granbury , TX , 76049",32.4530938,-97.7328629,72699,"TXGRA_Hwy377 , 3601 E US Hwy 377 , Granbury , TX , 76049",2.0,0.295047895348421,4.7,83.0,0.442308509208382,4.9,464.0,,,,,,,,,,,,
"TXNEW_Walton , 23685 Walton Ave , New Caney , TX , 77357",30.1529637,-95.2186963,102976,"TXNEW_Walton , 23685 Walton Ave , New Caney , TX , 77357",1.0,0.254602220525116,3.6,70.0,,,,,,,,,,,,,,,
"Taos , 1122 Paseo Del Pueblo Sur , Taos , NM , 87571",36.3816146,-105.5891681,82762,"Taos , 1122 Paseo Del Pueblo Sur , Taos , NM , 87571",0.0,,,,,,,,,,,,,,,,,,
"The Auto Spa @ Main Street , 2002 W Main St , Durant , OK , 74701",33.9970998,-96.3999484,77756,"The Auto Spa @ Main Street , 2002 W Main St , Durant , OK , 74701",4.0,0.64957425660539,4.5,43.0,0.660408032111723,4.3,159.0,0.76547739347284,3.7,35.0,0.777988090392603,3.0,3.0,,,,,,
"The Auto Spa @ University , 3212 University Blvd , Durant , OK , 74701",34.0053117,-96.4094184,36109,"The Auto Spa @ University , 3212 University Blvd , Durant , OK , 74701",2.0,0.162055895203844,4.5,43.0,0.784975600495416,4.2,209.0,,,,,,,,,,,,
"The Washery , 127 Airport Rd , Hazleton , PA , 18202",40.9914564,-75.986629,75352,"The Washery , 127 Airport Rd , Hazleton , PA , 18202",0.0,,,,,,,,,,,,,,,,,,
"Thoroughbred Ashland , 621 12th St , Ashland , KY , 41101",38.4776961,-82.6469666,9410,"Thoroughbred Ashland , 621 12th St , Ashland , KY , 41101",1.0,0.517925096879529,3.9,30.0,,,,,,,,,,,,,,,
"Thoroughbred Bardstown , 1332 E John Rowan Blvd , Bardstown , KY , 40004",37.825322,-85.4535733,98345,"Thoroughbred Bardstown , 1332 E John Rowan Blvd , Bardstown , KY , 40004",1.0,0.802816670815722,3.4,150.0,,,,,,,,,,,,,,,
"Thoroughbred Bedford , 3160 John A Williams Blvd , Bedford , IN , 47421",38.86775,-86.512944,10193,"Thoroughbred Bedford , 3160 John A Williams Blvd , Bedford , IN , 47421",2.0,0.592770498393499,4.2,87.0,0.614287222600139,,,,,,,,,,,,,,
"Thoroughbred Crosslanes , 211 New Goff Mountain Rd , Charleston , WV , 25313",38.4112508,-81.7966494,4939,"Thoroughbred Crosslanes , 211 New Goff Mountain Rd , Charleston , WV , 25313",1.0,0.216670355213087,,,,,,,,,,,,,,,,,
"Thoroughbred Danville , 925 Hustonville Rd , Danville , KY , 40422",37.6289123,-84.7752492,57794,"Thoroughbred Danville , 925 Hustonville Rd , Danville , KY , 40422",1.0,0.848540866172872,3.3,68.0,,,,,,,,,,,,,,,
"Thoroughbred Glasgow , 707 W Main St , Glasgow , KY , 42141",36.9997286,-85.9211718,121204,"Thoroughbred Glasgow , 707 W Main St , Glasgow , KY , 42141",0.0,,,,,,,,,,,,,,,,,,
"Thoroughbred Hurricane , 3111 Teays Valley Road , Hurricane , WV , 25526",38.4348488,-82.0135892,5161,"Thoroughbred Hurricane , 3111 Teays Valley Road , Hurricane , WV , 25526",0.0,,,,,,,,,,,,,,,,,,
"Thoroughbred Lawrenceburg , 1026 Bypass N , Lawrenceburg , KY , 40342",38.036633,-84.9116039,63062,"Thoroughbred Lawrenceburg , 1026 Bypass N , Lawrenceburg , KY , 40342",1.0,0.701072111012662,4.1,184.0,,,,,,,,,,,,,,,
"Thoroughbred Maysville , 245 Wal-Mart Way , Maysville , KY , 41056",38.6235771,-83.7871551,16924,"Thoroughbred Maysville , 245 Wal-Mart Way , Maysville , KY , 41056",0.0,,,,,,,,,,,,,,,,,,
"Thoroughbred Russellville , 235 Sam Walton Dr , Russellville , KY , 42276",36.8440025,-86.9194453,94542,"Thoroughbred Russellville , 235 Sam Walton Dr , Russellville , KY , 42276",0.0,,,,,,,,,,,,,,,,,,
"Thoroughbred Seymour , 1550 E Tipton St , Seymour , IN , 47274",38.9578933,-85.8645389,116951,"Thoroughbred Seymour , 1550 E Tipton St , Seymour , IN , 47274",1.0,0.165456218943435,4.0,262.0,,,,,,,,,,,,,,,
"Thoroughbred South Point , 45 Co Rd 120 , South Point , OH , 45680",38.4686596,-82.5510469,11353,"Thoroughbred South Point , 45 Co Rd 120 , South Point , OH , 45680",0.0,,,,,,,,,,,,,,,,,,
"Thoroughbred Teays , 3972 Teays Valley Road , Hurricane , WV , 25526",38.4485111,-81.9427941,4874,"Thoroughbred Teays , 3972 Teays Valley Road , Hurricane , WV , 25526",2.0,0.0720584670310546,4.2,66.0,0.588822225394893,4.0,124.0,,,,,,,,,,,,
"Touch & Go CW , 847 Brookway Blvd , Brookhaven , MS , 39601",31.5783449,-90.4635139,108947,,,,,,,,,,,,,,,,,,,,
"Town Center Auto Wash , 6380 Sashabaw Rd , Clarkston , MI , 48346",42.7322891,-83.3787575,82055,"Town Center Auto Wash , 6380 Sashabaw Rd , Clarkston , MI , 48346",0.0,,,,,,,,,,,,,,,,,,
"Trident Express Carwash , 6530 GA-40 , St. Marys , GA , 31558",30.7766023,-81.6209952,2100,"Trident Express Carwash , 6530 GA-40 , St. Marys , GA , 31558",0.0,,,,,,,,,,,,,,,,,,
"TruShine #2 Abingdon , 25017 Western Loop , Abingdon , VA , 24211",36.7140617,-81.9306869,79411,"TruShine #2 Abingdon , 25017 Western Loop , Abingdon , VA , 24211",0.0,,,,,,,,,,,,,,,,,,
"TruShine #3 Johnson City(Boones Creek) , 3033 Boones Creek Rd , Johnson City , TN , 37615",36.3855997,-82.4165509,88912,"TruShine #3 Johnson City(Boones Creek) , 3033 Boones Creek Rd , Johnson City , TN , 37615",0.0,,,,,,,,,,,,,,,,,,
"TruShine Bristol , 203 Linden Square Dr , Bristol , VA , 24202",36.6289697,-82.1294425,52158,"TruShine Bristol , 203 Linden Square Dr , Bristol , VA , 24202",1.0,0.764717673329081,4.5,246.0,,,,,,,,,,,,,,,
"Trushine #4 Kingsport , 2227 Fort Henry Dr , Kingsport , TN , 37664",36.5267711,-82.5206191,52877,"Trushine #4 Kingsport , 2227 Fort Henry Dr , Kingsport , TN , 37664",0.0,,,,,,,,,,,,,,,,,,
"Trushine #5 Sevierville , 116 Allensville Rd , Sevierville , TN , 37876",35.8772279,-83.5701602,79119,"Trushine #5 Sevierville , 116 Allensville Rd , Sevierville , TN , 37876",0.0,,,,,,,,,,,,,,,,,,
"Trushine #6 Blountville , 1912 TN-394 , Blountville , TN , 37617",36.5238753,-82.318723,37290,"Trushine #6 Blountville , 1912 TN-394 , Blountville , TN , 37617",0.0,,,,,,,,,,,,,,,,,,
"Tsunami La Porte , 821 Pine Lake Ave , La Porte , IN , 46350",41.6282905,-86.7373076,156371,"Tsunami La Porte , 821 Pine Lake Ave , La Porte , IN , 46350",1.0,0.0551338788762905,3.6,71.0,,,,,,,,,,,,,,,
"Tsunami Oak Creek , 140 W Puetz Rd , Oak Creek , WI , 53154",42.8871274,-87.9138393,78864,"Tsunami Oak Creek , 140 W Puetz Rd , Oak Creek , WI , 53154",0.0,,,,,,,,,,,,,,,,,,
"Tsunami Portage , 3105 Willowcreek Rd , Portage , IN , 46368",41.562444,-87.182288,202073,"Tsunami Portage , 3105 Willowcreek Rd , Portage , IN , 46368",1.0,0.875102530688739,3.8,49.0,,,,,,,,,,,,,,,
"Twins Merritt Island , 2240 N Courtenay Pkwy , Merritt Island , FL , 32953",28.39651,-80.704089,50191,"Twins Merritt Island , 2240 N Courtenay Pkwy , Merritt Island , FL , 32953",1.0,0.319657971055697,3.8,390.0,,,,,,,,,,,,,,,
"ULTIMATE CAR WASH , 1431 Cradduck Rd , Ada , OK , 74820",34.7600894,-96.662661,7084,"ULTIMATE CAR WASH , 1431 Cradduck Rd , Ada , OK , 74820",0.0,,,,,,,,,,,,,,,,,,
"UNIVERSITY , 201 University Ave , Fairbanks , AK , 99709",64.8379411,-147.8114342,24057,"UNIVERSITY , 201 University Ave , Fairbanks , AK , 99709",0.0,,,,,,,,,,,,,,,,,,
"US Car Wash , 845 N Adair St , Cornelius , OR , 97113",45.5203946,-123.061652,8622,"US Car Wash , 845 N Adair St , Cornelius , OR , 97113",0.0,,,,,,,,,,,,,,,,,,
"Universe , 9640 Universe Blvd NW , Albuquerque , NM , 87114",35.191141,-106.7261412,34008,"Universe , 9640 Universe Blvd NW , Albuquerque , NM , 87114",1.0,0.0756275924546902,5.0,2.0,,,,,,,,,,,,,,,
"V EXPRESS CAR WASH , 479 Lexington Rd , Versailles , KY , 40383",38.051423,-84.7161646,17248,"V EXPRESS CAR WASH , 479 Lexington Rd , Versailles , KY , 40383",3.0,0.0329928235421021,3.9,56.0,0.136900050015625,4.4,445.0,0.140541132227257,,,,,,,,,,,
"Varsity Carwash  Duff , 1016 S Duff Ave , Ames , IA , 50010",42.0130274,-93.6099251,109982,"Varsity Carwash  Duff , 1016 S Duff Ave , Ames , IA , 50010",4.0,0.226493356039649,4.6,478.0,0.53384423334268,3.0,65.0,0.806163928856569,4.3,21.0,0.850212552386483,4.3,26.0,,,,,,
"Varsity Carwash Lincoln , 3705 Lincoln Way , Ames , IA , 50014",42.0232629,-93.6692765,84408,"Varsity Carwash Lincoln , 3705 Lincoln Way , Ames , IA , 50014",1.0,0.208365756859428,4.1,47.0,,,,,,,,,,,,,,,
"Velocity Car Wash , 1607 W Highway 40 , Vernal , UT , 84078",40.4439821,-109.5581948,111079,"Velocity Car Wash , 1607 W Highway 40 , Vernal , UT , 84078",0.0,,,,,,,,,,,,,,,,,,
"Virginia Car Wash Co. , 4830 Portsmouth Blvd , Chesapeake , VA , 23321",36.8173419,-76.442266,3620,"Virginia Car Wash Co. , 4830 Portsmouth Blvd , Chesapeake , VA , 23321",0.0,,,,,,,,,,,,,,,,,,
"Vortex Car Wash , 150 Jonathans Way , Suffolk , VA , 23434",36.7683141,-76.5833526,30842,"Vortex Car Wash , 150 Jonathans Way , Suffolk , VA , 23434",1.0,0.678500435513151,4.4,146.0,,,,,,,,,,,,,,,
"WASHPOINTE AUTO WASH , 1401 N Prince St , Clovis , NM , 88101",34.4124715,-103.1961625,14343,"WASHPOINTE AUTO WASH , 1401 N Prince St , Clovis , NM , 88101",2.0,0.39516501156414,2.0,1.0,0.510745737380874,,,,,,,,,,,,,,
"WASHWORKS EXPRESS , 601 E King Ave , Kingsville , TX , 78363",27.5153746,-97.8615692,28520,"WASHWORKS EXPRESS , 601 E King Ave , Kingsville , TX , 78363",1.0,0.435755531597454,5.0,14.0,,,,,,,,,,,,,,,
"WATER GAP CAR WASH , 31 Justice Dr , Hazard , KY , 41701",37.296668,-83.2145406,14156,"WATER GAP CAR WASH , 31 Justice Dr , Hazard , KY , 41701",1.0,0.755632778353141,4.3,43.0,,,,,,,,,,,,,,,
"WOW Car Wash , 911 N Broad St , Monroe , GA , 30655",33.8119758,-83.727067,74647,"WOW Car Wash , 911 N Broad St , Monroe , GA , 30655",0.0,,,,,,,,,,,,,,,,,,
"WOW Car Wash Winder , 242 N Broad St , Winder , GA , 30680",34.0008593,-83.710324,29692,"WOW Car Wash Winder , 242 N Broad St , Winder , GA , 30680",0.0,,,,,,,,,,,,,,,,,,
"Warrior Way , 540 Warrior Way , Grand Junction , CO , 81504",39.0836225,-108.4724937,52107,"Warrior Way , 540 Warrior Way , Grand Junction , CO , 81504",0.0,,,,,,,,,,,,,,,,,,
"Wash 37055 , 118 Henslee Dr , Dickson , TN , 37055",36.0741589,-87.3697417,119977,"Wash 37055 , 118 Henslee Dr , Dickson , TN , 37055",1.0,0.654630975666806,4.6,670.0,,,,,,,,,,,,,,,
"Wash 37062 , 2075 Fairview Blvd , Fairview , TN , 37062",35.9812455,-87.1222212,2953,"Wash 37062 , 2075 Fairview Blvd , Fairview , TN , 37062",0.0,,,,,,,,,,,,,,,,,,
"Wash Ashore Plymouth , 2304 State Rd , Plymouth , MA , 2360",41.8177664,-70.5506402,75138,"Wash Ashore Plymouth , 2304 State Rd , Plymouth , MA , 2360",0.0,,,,,,,,,,,,,,,,,,
"Wash City Semoran , 4575 S Semoran Blvd , Orlando , FL , 32822",28.4972739,-81.3091358,178511,"Wash City Semoran , 4575 S Semoran Blvd , Orlando , FL , 32822",1.0,0.619469439438584,4.1,1656.0,,,,,,,,,,,,,,,
"Wash It Dean , 750 Cincinnati Ave , Xenia , OH , 45385",39.6758187,-83.940666,48129,"Wash It Dean , 750 Cincinnati Ave , Xenia , OH , 45385",0.0,,,,,,,,,,,,,,,,,,
"Wash N Roll Athens , 24925 US-72 , Athens , AL , 35613",34.7668122,-86.882772,57789,"Wash N Roll Athens , 24925 US-72 , Athens , AL , 35613",0.0,,,,,,,,,,,,,,,,,,
"Wash Rack 95 , 1100 N Whitley Dr , Fruitland , ID , 83619",44.0217094,-116.9227294,73875,"Wash Rack 95 , 1100 N Whitley Dr , Fruitland , ID , 83619",1.0,0.671508648849795,3.5,35.0,,,,,,,,,,,,,,,
"Wash Rite Bridgeport , 910 W Main St , Bridgeport , WV , 26330",39.2821198,-80.2685024,143497,"Wash Rite Bridgeport , 910 W Main St , Bridgeport , WV , 26330",0.0,,,,,,,,,,,,,,,,,,
"Wash Rite Marietta , 107 Crooked Run Ln , Marietta , OH , 45750",39.405323,-81.4130599,151267,"Wash Rite Marietta , 107 Crooked Run Ln , Marietta , OH , 45750",2.0,0.0649241016043076,1.0,16.0,0.065305988317209,2.8,68.0,,,,,,,,,,,,
"Wash Rite Moundsville , 75 Teletech Dr , Moundsville , WV , 26041",39.9096979,-80.749338,40229,"Wash Rite Moundsville , 75 Teletech Dr , Moundsville , WV , 26041",0.0,,,,,,,,,,,,,,,,,,
"Wash Rite Murdoch , 2521 Murdoch Ave , Parkersburg , WV , 26101",39.2833465,-81.5481209,112767,"Wash Rite Murdoch , 2521 Murdoch Ave , Parkersburg , WV , 26101",1.0,0.622485506264096,4.1,157.0,,,,,,,,,,,,,,,
"Wash Rite Parkersburg , 1101 Division Street , Parkersburg , WV , 26101",39.2475641,-81.5545078,137823,"Wash Rite Parkersburg , 1101 Division Street , Parkersburg , WV , 26101",0.0,,,,,,,,,,,,,,,,,,
"Wash Rite Vienna , 2504 Grand Central Ave , Vienna , WV , 26105",39.3230459,-81.5506606,90032,"Wash Rite Vienna , 2504 Grand Central Ave , Vienna , WV , 26105",1.0,0.282733570199166,4.0,143.0,,,,,,,,,,,,,,,
"Wash Rite Wintersville , 151 Cadiz Rd , Wintersville , OH , 43953",40.3759682,-80.7058034,107564,"Wash Rite Wintersville , 151 Cadiz Rd , Wintersville , OH , 43953",1.0,0.913211805430613,5.0,3.0,,,,,,,,,,,,,,,
"Wash Up Griffith , 1224 E Ridge Rd , Griffith , IN , 46319",41.5499525,-87.4137288,17566,"Wash Up Griffith , 1224 E Ridge Rd , Griffith , IN , 46319",2.0,0.0301493876341948,5.0,1.0,0.656016024972359,3.8,303.0,,,,,,,,,,,,
"Wash Up Hammond , 850 Indianapolis Blvd , Hammond , IN , 46320",41.6960611,-87.5199543,148091,"Wash Up Hammond , 850 Indianapolis Blvd , Hammond , IN , 46320",0.0,,,,,,,,,,,,,,,,,,
"Wash Up Portage , 6259 Melton Rd , Portage , IN , 46368",41.598234,-87.173255,47789,"Wash Up Portage , 6259 Melton Rd , Portage , IN , 46368",1.0,0.67461959641314,3.6,61.0,,,,,,,,,,,,,,,
"Wash Up Valparaiso , 460 Morthland Dr , Valparaiso , IN , 46383",41.4603284,-87.066715,52351,"Wash Up Valparaiso , 460 Morthland Dr , Valparaiso , IN , 46383",3.0,0.214035572003127,4.0,4.0,0.496092340583894,3.4,26.0,0.877074486723785,4.5,4.0,,,,,,,,,
"Wash Wizard Ladson , 3910 Ladson Rd , Ladson , SC , 29456",32.9735991,-80.1400726,89948,"Wash Wizard Ladson , 3910 Ladson Rd , Ladson , SC , 29456",0.0,,,,,,,,,,,,,,,,,,
"Wash Wizard Summerville , 2146 N Main St , Summerville , SC , 29486",33.0469893,-80.1104749,145419,"Wash Wizard Summerville , 2146 N Main St , Summerville , SC , 29486",1.0,0.0563177366547068,3.8,107.0,,,,,,,,,,,,,,,
"Washbox Car Wash , 180 W Grand Ave , Rainbow City , AL , 35906",33.9570503,-86.0446243,138316,"Washbox Car Wash , 180 W Grand Ave , Rainbow City , AL , 35906",1.0,0.255038261081325,1.0,1.0,,,,,,,,,,,,,,,
"Waters Deland , 1712 N Woodland Blvd , DeLand , FL , 32720",29.0626284,-81.3052357,3249,"Waters Deland , 1712 N Woodland Blvd , DeLand , FL , 32720",2.0,0.617345665795568,,,0.617345665795568,4.4,951.0,,,,,,,,,,,,
"Waters Lakeland , 3635 Lakeland Highlands Rd , Lakeland , FL , 33803",27.998366,-81.9243682,153125,"Waters Lakeland , 3635 Lakeland Highlands Rd , Lakeland , FL , 33803",1.0,0.0012437535504886,4.4,23.0,,,,,,,,,,,,,,,
"Waterworks Express Car Wash , 1557 Marinette Ave , Marinette , WI , 54143",45.0896038,-87.6503233,60950,"Waterworks Express Car Wash , 1557 Marinette Ave , Marinette , WI , 54143",1.0,0.927020955647018,2.0,1.0,,,,,,,,,,,,,,,
"Weber W&L , 701 Old State Rte 3 , Columbia , IL , 62236",38.4384418,-90.2028235,56160,,,,,,,,,,,,,,,,,,,,
"West Little Rock - Chenal Pkwy , 15701 Chenal Pkwy , Little Rock , AR , 72211",34.7558249,-92.4441288,133870,"West Little Rock - Chenal Pkwy , 15701 Chenal Pkwy , Little Rock , AR , 72211",2.0,0.576940353142183,4.2,304.0,0.984636071571237,3.6,61.0,,,,,,,,,,,,
"West Memphis , 646 W Service Rd , West Memphis , AR , 72301",35.1678659,-90.1980163,68598,"West Memphis , 646 W Service Rd , West Memphis , AR , 72301",0.0,,,,,,,,,,,,,,,,,,
"Wet Rabbit Marysville , 1219 State Ave , Marysville , WA , 98270",48.0619435,-122.177485,108268,"Wet Rabbit Marysville , 1219 State Ave , Marysville , WA , 98270",1.0,0.954873489414749,2.2,73.0,,,,,,,,,,,,,,,
"WetnJet Car Wash , 516 Friendship Ln , Fredericksburg , TX , 78624",30.2563533,-98.8707888,39792,"WetnJet Car Wash , 516 Friendship Ln , Fredericksburg , TX , 78624",1.0,0.938840551347067,4.9,494.0,,,,,,,,,,,,,,,
"Whistle Express CW - Fredericksburg , 10813 Tidewater Trail , Fredericksburg , VA , 22408",38.254834,-77.4274131,1059,"Whistle Express CW - Fredericksburg , 10813 Tidewater Trail , Fredericksburg , VA , 22408",0.0,,,,,,,,,,,,,,,,,,
"Whistle Express Car Wash - Alachua , 16093 NW 163rd Lane , Alachua , FL , 32615",29.8029356,-82.5181488,2808,"Whistle Express Car Wash - Alachua , 16093 NW 163rd Lane , Alachua , FL , 32615",0.0,,,,,,,,,,,,,,,,,,
"Whistle Express Car Wash - Baxley , 956 W Parker St , Baxley , GA , 31513",31.783646,-82.3637095,17481,"Whistle Express Car Wash - Baxley , 956 W Parker St , Baxley , GA , 31513",0.0,,,,,,,,,,,,,,,,,,
"Whistle Express Car Wash - Beaufort , 285 Sea Island Pkwy , Beaufort , SC , 29907",32.405966,-80.633475,9403,"Whistle Express Car Wash - Beaufort , 285 Sea Island Pkwy , Beaufort , SC , 29907",0.0,,,,,,,,,,,,,,,,,,
"Whistle Express Car Wash - Blue Ridge , 32 McKinney Rd , Blue Ridge , GA , 30513",34.8808661,-84.2944237,72876,"Whistle Express Car Wash - Blue Ridge , 32 McKinney Rd , Blue Ridge , GA , 30513",0.0,,,,,,,,,,,,,,,,,,
"Whistle Express Car Wash - Charleston , 4865 Tanger Outlet Blvd , North Charleston , SC , 29418",32.8714992,-80.0153296,19285,"Whistle Express Car Wash - Charleston , 4865 Tanger Outlet Blvd , North Charleston , SC , 29418",2.0,0.306007936061462,4.9,1400.0,0.451150419472542,3.0,130.0,,,,,,,,,,,,
"Whistle Express Car Wash - Fairlawn , 7426 Lee Hwy , Radford , VA , 24141",37.1433324,-80.5818851,102602,"Whistle Express Car Wash - Fairlawn , 7426 Lee Hwy , Radford , VA , 24141",0.0,,,,,,,,,,,,,,,,,,
"Whistle Express Car Wash - Forest , 14669 Forest Road , Forest , VA , 24551",37.3676292,-79.2988227,3143,"Whistle Express Car Wash - Forest , 14669 Forest Road , Forest , VA , 24551",1.0,0.376380681102031,3.0,67.0,,,,,,,,,,,,,,,
"Whistle Express Car Wash - Harriman , 1821 Roane State Hwy , Harriman , TN , 37748",35.8910308,-84.546574,113038,"Whistle Express Car Wash - Harriman , 1821 Roane State Hwy , Harriman , TN , 37748",0.0,,,,,,,,,,,,,,,,,,
"Whistle Express Car Wash - Hazelhurst , 184 E Jarman St , Hazlehurst , GA , 31539",31.8657271,-82.5889875,26785,"Whistle Express Car Wash - Hazelhurst , 184 E Jarman St , Hazlehurst , GA , 31539",0.0,,,,,,,,,,,,,,,,,,
"Whistle Express Car Wash - Jasper , 705 Noah Dr , Jasper , GA , 30143",34.4688379,-84.4590794,124968,"Whistle Express Car Wash - Jasper , 705 Noah Dr , Jasper , GA , 30143",2.0,0.174981717331305,,,0.551091100630185,3.1,53.0,,,,,,,,,,,,
"Whistle Express Car Wash - Leland , 2040 Olde Regent Way , Leland , NC , 28451",34.2193962,-78.0165048,162678,"Whistle Express Car Wash - Leland , 2040 Olde Regent Way , Leland , NC , 28451",1.0,0.446138796902732,4.9,307.0,,,,,,,,,,,,,,,
"Whistle Express Car Wash - Live Oak , 1114 Ohio Ave N , Live Oak , FL , 32064",30.3067062,-82.9778241,24845,"Whistle Express Car Wash - Live Oak , 1114 Ohio Ave N , Live Oak , FL , 32064",1.0,0.391118298703416,3.7,34.0,,,,,,,,,,,,,,,
"Whistle Express Car Wash - Louisburg , 602 S Bickett Blvd , Louisburg , NC , 27549",36.084169,-78.310355,19138,"Whistle Express Car Wash - Louisburg , 602 S Bickett Blvd , Louisburg , NC , 27549",0.0,,,,,,,,,,,,,,,,,,
"Whistle Express Car Wash - Macedonia , 309 Highland Rd , Macedonia , OH , 44056",41.300026,-81.514408,9558,"Whistle Express Car Wash - Macedonia , 309 Highland Rd , Macedonia , OH , 44056",1.0,0.104829271486985,3.1,104.0,,,,,,,,,,,,,,,
"Whistle Express Car Wash - Mayport , 1500 Mayport Rd , Atlantic Beach , FL , 32233",30.3357223,-81.415354,22469,"Whistle Express Car Wash - Mayport , 1500 Mayport Rd , Atlantic Beach , FL , 32233",1.0,0.804397457748041,4.8,700.0,,,,,,,,,,,,,,,
"Whistle Express Car Wash - Melbourne , 4860 N Wickham Rd , Melbourne , FL , 32940",28.1879225,-80.6727404,120458,"Whistle Express Car Wash - Melbourne , 4860 N Wickham Rd , Melbourne , FL , 32940",1.0,0.216401790707156,,,,,,,,,,,,,,,,,
"Whistle Express Car Wash - Mount Airy , 139 Kodiak Ln , Mount Airy , NC , 27030",36.4877738,-80.6157567,129301,"Whistle Express Car Wash - Mount Airy , 139 Kodiak Ln , Mount Airy , NC , 27030",1.0,0.948353713957611,4.9,851.0,,,,,,,,,,,,,,,
"Whistle Express Car Wash - Murphy , 251 King St , Murphy , NC , 28906",35.0798938,-84.033852,84425,"Whistle Express Car Wash - Murphy , 251 King St , Murphy , NC , 28906",1.0,0.537056659095515,3.9,10.0,,,,,,,,,,,,,,,
"Whistle Express Car Wash - Orange Park , 950 Park Ave , Orange Park , FL , 32073",30.178049,-81.7020568,46636,"Whistle Express Car Wash - Orange Park , 950 Park Ave , Orange Park , FL , 32073",1.0,0.0396103871010608,3.9,207.0,,,,,,,,,,,,,,,
"Whistle Express Car Wash - Pole Green , 7423 Pole Green Rd , Mechanicsville , VA , 23116",37.6305119,-77.3632838,7024,"Whistle Express Car Wash - Pole Green , 7423 Pole Green Rd , Mechanicsville , VA , 23116",0.0,,,,,,,,,,,,,,,,,,
"Whistle Express Car Wash - Pooler , 2001 Pooler Pkwy , Pooler , GA , 31322",32.0816962,-81.2801965,83664,"Whistle Express Car Wash - Pooler , 2001 Pooler Pkwy , Pooler , GA , 31322",1.0,0.887368686581175,4.1,709.0,,,,,,,,,,,,,,,
"Whistle Express Car Wash - Racers Edge , 351 Commonwealth Blvd , Martinsville , VA , 24112",36.6968363,-79.8870267,127005,"Whistle Express Car Wash - Racers Edge , 351 Commonwealth Blvd , Martinsville , VA , 24112",0.0,,,,,,,,,,,,,,,,,,
"Whistle Express Car Wash - Roxboro , 421 N Madison Blvd , Roxboro , NC , 27573",36.3995425,-78.9823863,76196,"Whistle Express Car Wash - Roxboro , 421 N Madison Blvd , Roxboro , NC , 27573",2.0,0.81719647582005,4.2,268.0,0.970147214322601,4.3,70.0,,,,,,,,,,,,
"Whistle Express Car Wash - SouthPort , 5014 Southport Crossing Wy , Southport , NC , 28461",33.9540971,-78.0503435,103408,"Whistle Express Car Wash - SouthPort , 5014 Southport Crossing Wy , Southport , NC , 28461",1.0,0.352757368759139,4.2,130.0,,,,,,,,,,,,,,,
"Whistle Express Car Wash - Washington , 427 Bridge St , Washington , NC , 27889",35.5488005,-77.057573,79241,"Whistle Express Car Wash - Washington , 427 Bridge St , Washington , NC , 27889",1.0,0.888251294328294,4.7,133.0,,,,,,,,,,,,,,,
"Whistle Express Car Wash - Westover , 105 S Westover Blvd , Albany , GA , 31707",31.5843172,-84.2206133,20747,"Whistle Express Car Wash - Westover , 105 S Westover Blvd , Albany , GA , 31707",0.0,,,,,,,,,,,,,,,,,,
"Whistle Express Car Wash -Boll Weevil , 654 Boll Weevil Cir , Enterprise , AL , 36330",31.3218393,-85.8302736,96594,"Whistle Express Car Wash -Boll Weevil , 654 Boll Weevil Cir , Enterprise , AL , 36330",3.0,0.197104006235083,3.3,331.0,0.294610782017426,3.3,62.0,0.667964515185507,,,,,,,,,,,
"Whistle Express Car Wash Crawfordville , 2135 Crawfordville Hwy , Crawfordville , FL , 32327",30.2136553,-84.3632953,111385,"Whistle Express Car Wash Crawfordville , 2135 Crawfordville Hwy , Crawfordville , FL , 32327",2.0,0.471977123101103,3.4,138.0,0.479291463873984,1.0,1.0,,,,,,,,,,,,
"Whistle Express Car WashChristiansburg , 945 N Franklin St , Christiansburg , VA , 24073",37.141632,-80.4147648,48723,"Whistle Express Car WashChristiansburg , 945 N Franklin St , Christiansburg , VA , 24073",2.0,0.352442777803491,2.5,2.0,0.973100171354089,3.8,4.0,,,,,,,,,,,,
"Whistle Express Car WashHendersonville , 579 New Shackle Island Rd , Hendersonville , TN , 37075",36.3377933,-86.6163971,6920,"Whistle Express Car WashHendersonville , 579 New Shackle Island Rd , Hendersonville , TN , 37075",0.0,,,,,,,,,,,,,,,,,,
"Whistle Express Car WashNorth Valdosta , 4139 N Valdosta Rd , Valdosta , GA , 31602",30.8968771,-83.3289852,102245,"Whistle Express Car WashNorth Valdosta , 4139 N Valdosta Rd , Valdosta , GA , 31602",0.0,,,,,,,,,,,,,,,,,,
"Whistle Express Car WashPort Wentworth , 38 Magellan Blvd , Port Wentworth , GA , 31407",32.1956562,-81.1974481,104047,"Whistle Express Car WashPort Wentworth , 38 Magellan Blvd , Port Wentworth , GA , 31407",1.0,0.165861145715164,4.8,1143.0,,,,,,,,,,,,,,,
"White Water CW , 7600 Crater Lake Hwy , White City , OR , 97503",42.4267962,-122.8487759,5334,"White Water CW , 7600 Crater Lake Hwy , White City , OR , 97503",1.0,0.657088738678827,4.1,242.0,,,,,,,,,,,,,,,
"Wicked Wash , 160 E 1st S , Rigby , ID , 83442",43.6698154,-111.9134033,101495,"Wicked Wash , 160 E 1st S , Rigby , ID , 83442",0.0,,,,,,,,,,,,,,,,,,
"Willy's Wash , 2605 N 14th St , Ponca City , OK , 74601",36.7364497,-97.0666901,46403,,,,,,,,,,,,,,,,,,,,
"Wolfrum , 1010 Wolfrum Rd , Weldon Spring , MO , 63304",38.7287947,-90.6444119,1855,"Wolfrum , 1010 Wolfrum Rd , Weldon Spring , MO , 63304",1.0,0.978913057948801,2.7,15.0,,,,,,,,,,,,,,,
"Woodie's Ballantrae , 17322 FL-54 , Lutz , FL , 33558",28.193589,-82.527278,118310,,,,,,,,,,,,,,,,,,,,
"Woodie's Gibsonton , 9350 Theater Dr , Gibsonton , FL , 33534",27.849035,-82.3507939,74693,,,,,,,,,,,,,,,,,,,,
"Woodie's Lutz , 24749 FL-54 , Lutz , FL , 33559",28.1864462,-82.4066793,102470,,,,,,,,,,,,,,,,,,,,
"Woodie's Sun City , 4927 FL-674 , Wimauma , FL , 33598",27.7119642,-82.3332559,146631,,,,,,,,,,,,,,,,,,,,
"ZAK's Car Wash , 2500 S Business 49 , Neosho , MO , 64850",36.8428883,-94.3926174,87074,,,,,,,,,,,,,,,,,,,,
"Bridgeville , 3101 Washington Pike , Bridgeville , PA , 15017",40.3493811,-80.1116229,4831,"Bridgeville , 3101 Washington Pike , Bridgeville , PA , 15017",2.0,0.284131911583831,2.7,118.0,0.760118417457632,4.5,42.0,,,,,,,,,,,,
"COUGAR RIDGE , 10215 China Spring Rd , Waco , TX , 76708",31.6285436,-97.2443216,3100,"COUGAR RIDGE , 10215 China Spring Rd , Waco , TX , 76708",1.0,0.987924594258649,5.0,1.0,,,,,,,,,,,,,,,
"Erie , 4234 Buffalo Rd , Erie , PA , 16510",42.1452943,-80.005931,6842,"Erie , 4234 Buffalo Rd , Erie , PA , 16510",1.0,0.106224126582221,3.7,186.0,,,,,,,,,,,,,,,
"Evolution Car Wash , 1665 NV-88 , Minden , NV , 89423",38.9587747,-119.7777729,86528,"Evolution Car Wash , 1665 NV-88 , Minden , NV , 89423",1.0,0.0166429156344957,4.3,261.0,,,,,,,,,,,,,,,
"Fast and Friendly Maricopa II , 42020 W Maricopa-Casa Grande Hwy , Maricopa , AZ , 85138",33.0394599,-112.0187546,56950,"Fast and Friendly Maricopa II , 42020 W Maricopa-Casa Grande Hwy , Maricopa , AZ , 85138",0.0,,,,,,,,,,,,,,,,,,
"FoamWorks Fayetteville , 1512 GA-85 , Fayetteville , GA , 30214",33.4872303,-84.4341295,62330,"FoamWorks Fayetteville , 1512 GA-85 , Fayetteville , GA , 30214",0.0,,,,,,,,,,,,,,,,,,
"GO Car Wash- 412 Rock Port , 2200 Rock Port Dr , Harrisonburg , VA , 22801",38.4050476,-78.8677602,51925,"GO Car Wash- 412 Rock Port , 2200 Rock Port Dr , Harrisonburg , VA , 22801",1.0,0.300325712144328,4.7,410.0,,,,,,,,,,,,,,,
"GO Car Wash- 413 Market , 2335 E Market St , Harrisonburg , VA , 22801",38.4210548,-78.8382949,43355,"GO Car Wash- 413 Market , 2335 E Market St , Harrisonburg , VA , 22801",2.0,0.143288541775228,4.8,12.0,0.986574937848149,4.8,1142.0,,,,,,,,,,,,
"Gaffney , 1521 W Floyd Baker Blvd , Gaffney , SC , 29341",35.0895526,-81.6636002,2438,"Gaffney , 1521 W Floyd Baker Blvd , Gaffney , SC , 29341",3.0,0.036499692267702,4.1,87.0,0.336867065799631,,,0.438924301470238,,,,,,,,,,,
"Hydro Express Wash , 3088 Hennepin Dr , Joliet , IL , 60431",41.5726477,-88.1574489,11702,"Hydro Express Wash , 3088 Hennepin Dr , Joliet , IL , 60431",0.0,,,,,,,,,,,,,,,,,,
"Lakes Edge , 7916 Bradley Long Dr. , Lake Norman of Catawba , NC , 28682",35.5832605,-80.9887544,10179,"Lakes Edge , 7916 Bradley Long Dr. , Lake Norman of Catawba , NC , 28682",1.0,0.180471285530929,2.3,3.0,,,,,,,,,,,,,,,
"Let's Go Bixby , 15025 S Memorial Dr , Bixby , OK , 74008",35.9453430605934,-95.8863834618877,2835,,,,,,,,,,,,,,,,,,,,
"Magic Barboursville , 6442 US-60 , Barboursville , WV , 25504",38.4156073,-82.2972267,69082,"Magic Barboursville , 6442 US-60 , Barboursville , WV , 25504",1.0,0.172257735164894,3.6,71.0,,,,,,,,,,,,,,,
"Magic Belle , 1601 S Main St , Bellefontaine , OH , 43311",40.3369448,-83.7614212,25214,"Magic Belle , 1601 S Main St , Bellefontaine , OH , 43311",2.0,0.335204050168071,2.0,8.0,0.983236383098587,4.5,83.0,,,,,,,,,,,,
"Magic Circleville , 1475 S Court St , Circleville , OH , 43113",39.5811987,-82.9522844,64765,"Magic Circleville , 1475 S Court St , Circleville , OH , 43113",1.0,0.432917134760799,4.0,1.0,,,,,,,,,,,,,,,
"Magic Defiance , 8715 OH-66 , Defiance , OH , 43512",41.316082,-84.360527,30804,"Magic Defiance , 8715 OH-66 , Defiance , OH , 43512",0.0,,,,,,,,,,,,,,,,,,
"Magic Gallipolis , 2183 Eastern Ave , Gallipolis , OH , 45631",38.8246133,-82.1703409,54211,"Magic Gallipolis , 2183 Eastern Ave , Gallipolis , OH , 45631",0.0,,,,,,,,,,,,,,,,,,
"Magic LaGrange , 1100 Lafayette Pkwy , LaGrange , GA , 30241",33.0400117,-85.0065807,68996,"Magic LaGrange , 1100 Lafayette Pkwy , LaGrange , GA , 30241",0.0,,,,,,,,,,,,,,,,,,
"Magic Piqua , 1292 E Ash St , Piqua , OH , 45356",40.1510683,-84.2092494,21065,"Magic Piqua , 1292 E Ash St , Piqua , OH , 45356",1.0,0.0976551225925783,4.3,230.0,,,,,,,,,,,,,,,
"Magic Portsmouth , 2311 Gallia St , Portsmouth , OH , 45662",38.7398579,-82.9706182,81969,"Magic Portsmouth , 2311 Gallia St , Portsmouth , OH , 45662",1.0,0.775281778945524,3.7,24.0,,,,,,,,,,,,,,,
"Magic Sidney , 2680 W Michigan St , Sidney , OH , 45365",40.2881962,-84.1987428,41901,"Magic Sidney , 2680 W Michigan St , Sidney , OH , 45365",0.0,,,,,,,,,,,,,,,,,,
"Magic Tiffin , 2161 W Market St , Tiffin , OH , 44883",41.1107066,-83.2121582,29800,"Magic Tiffin , 2161 W Market St , Tiffin , OH , 44883",0.0,,,,,,,,,,,,,,,,,,
"Magic Troy , 10 Kings Chapel Dr N , Troy , OH , 45373",40.0606203,-84.2497243,31966,"Magic Troy , 10 Kings Chapel Dr N , Troy , OH , 45373",0.0,,,,,,,,,,,,,,,,,,
"Magic Van Wert , 7965 US-127 , Van Wert , OH , 45891",40.8877671,-84.5820105,11330,"Magic Van Wert , 7965 US-127 , Van Wert , OH , 45891",0.0,,,,,,,,,,,,,,,,,,
"Magic Waverly , 865 W Emmitt Ave , Waverly , OH , 45690",39.1137223,-82.9961453,49906,"Magic Waverly , 865 W Emmitt Ave , Waverly , OH , 45690",1.0,0.710370559008718,3.4,47.0,,,,,,,,,,,,,,,
